Route,Location,URL,"Avg Stars","Your Stars","Route Type",Rating,Pitches,Length,"Area Latitude","Area Longitude"
"The Nose","2. Southwest Face > B. El Capitan > Valley North Side > Yosemite Valley > Yosemite National Park > California",https://www.mountainproject.com/route/105924807/the-nose,3.9,-1,"Trad, Aid","5.9 C2",31,3000,37.73051,-119.63828
"Snake Dike","3. Southwest Face > D. Half Dome > Valley South Side > Yosemite Valley > Yosemite National Park > California",https://www.mountainproject.com/route/105836362/snake-dike,3.6,-1,Trad,"5.7 R",8,2000,37.73971,-119.54003
"Regular Northwest Face of Half Dome (RNWF)","1. Northwest Face > D. Half Dome > Valley South Side > Yosemite Valley > Yosemite National Park > California",https://www.mountainproject.com/route/105912416/regular-northwest-face-of-half-dome-rnwf,3.9,-1,"Trad, Aid","5.9 C1",23,2200,37.74685,-119.5336
"Southeast Buttress","Southeast Slopes > Cathedral Peak > Cathedral Range > Tuolumne Meadows > Yosemite National Park > California",https://www.mountainproject.com/route/105835705/southeast-buttress,3.8,-1,"Trad, Alpine",5.6,5,700,37.84705,-119.40453
Freerider,"2. Southwest Face > B. El Capitan > Valley North Side > Yosemite Valley > Yosemite National Park > California",https://www.mountainproject.com/route/106261545/freerider,3.9,-1,Trad,"5.13a PG13",30,3300,37.73051,-119.63828
"Salathé Wall","2. Southwest Face > B. El Capitan > Valley North Side > Yosemite Valley > Yosemite National Park > California",https://www.mountainproject.com/route/106154042/salathe-wall,4.0,-1,"Trad, Aid","5.9 C2",35,3500,37.73051,-119.63828
Astroman,"I. Washington Column > Valley North Side > Yosemite Valley > Yosemite National Park > California",https://www.mountainproject.com/route/105845493/astroman,4.0,-1,Trad,5.11c,10,1000,37.74778,-119.559
"Matthes Crest Traverse - South to North","Matthes Crest > Cathedral Range > Tuolumne Meadows > Yosemite National Park > California",https://www.mountainproject.com/route/106008982/matthes-crest-traverse-south-to-north,3.9,-1,"Trad, Alpine",5.7,1,2500,37.8186,-119.3992
"The North Face","Ba. The Rostrum > Lower Merced River Canyon > Yosemite Valley > Yosemite National Park > California",https://www.mountainproject.com/route/105863822/the-north-face,4.0,-1,Trad,5.11c,8,700,37.71848,-119.70799
"*CLOSED FOR SAFETY* Sons of Yesterday","Western Royal Arches > Royal Arches > H. Royal Arches Area > Valley North Side > Yosemite Valley > Yosemite National Park > California",https://www.mountainproject.com/route/105862915/closed-for-safety-sons-of-yesterday,3.9,-1,Trad,5.10-,6,600,37.74873,-119.57265
"Separate Reality","Ak. Wildcat Falls & Above the Cookie > Lower Merced River Canyon > Yosemite Valley > Yosemite National Park > California",https://www.mountainproject.com/route/105874590/separate-reality,4.0,-1,Trad,5.12a,1,50,37.7202,-119.71946
"*CLOSED FOR SAFETY * Serenity Crack","Western Royal Arches > Royal Arches > H. Royal Arches Area > Valley North Side > Yosemite Valley > Yosemite National Park > California",https://www.mountainproject.com/route/105862912/closed-for-safety-serenity-crack,3.9,-1,Trad,"5.10d PG13",3,350,37.74873,-119.57265
"Central Pillar of Frenzy","6. Middle Cathedral Rock > P. Cathedral Area > Valley South Side > Yosemite Valley > Yosemite National Park > California",https://www.mountainproject.com/route/105862930/central-pillar-of-frenzy,3.8,-1,Trad,5.9,5,500,37.7165,-119.6363
"Tenaya, Matthes, Cathedral Traverse","Cathedral Range Enchainments > Cathedral Range > Tuolumne Meadows > Yosemite National Park > California",https://www.mountainproject.com/route/107677399/tenaya-matthes-cathedral-traverse,4.0,-1,"Trad, Alpine",5.7,1,4700,37.82733,-119.37442
"West Ridge","Mt. Conness > Glen Aulin Area > Tuolumne Meadows > Yosemite National Park > California",https://www.mountainproject.com/route/106167844/west-ridge,3.8,-1,"Trad, Alpine",5.6,10,1500,37.96688,-119.32128
Steck-Salathe,"M. Sentinel Rock > Valley South Side > Yosemite Valley > Yosemite National Park > California",https://www.mountainproject.com/route/105862873/steck-salathe,3.8,-1,Trad,5.10-,15,,37.72958,-119.59381
Freeblast,"2. Southwest Face > B. El Capitan > Valley North Side > Yosemite Valley > Yosemite National Park > California",https://www.mountainproject.com/route/105991737/freeblast,3.6,-1,Trad,5.11,10,950,37.73051,-119.63828
Oz,"Drug Dome > Tuolumne Meadows > Yosemite National Park > California",https://www.mountainproject.com/route/105862944/oz,3.9,-1,Trad,5.10d,5,600,37.86461,-119.42215
"The Nutcracker Suite (aka Nutcracker)","5. Manure Pile Buttress (aka Ranger Rock) > C. El Cap Picnic Area (Eagle Creek) > Valley North Side > Yosemite Valley > Yosemite National Park > California",https://www.mountainproject.com/route/105833505/the-nutcracker-suite-aka-nutcracker,3.6,-1,Trad,5.8,5,500,37.73059,-119.619
"Regular Route","North Face > Fairview Dome > Tuolumne Meadows > Yosemite National Park > California",https://www.mountainproject.com/route/105847227/regular-route,3.7,-1,Trad,5.9,12,1000,37.87279,-119.40427
Butterballs,"The Cookie Cliff > Aj. Cookie Area > Lower Merced River Canyon > Yosemite Valley > Yosemite National Park > California",https://www.mountainproject.com/route/105936538/butterballs,3.9,-1,Trad,5.11c,1,80,37.71772,-119.71881
"Royal Arches (5.10- or 5.7 A0)","Central Royal Arches > Royal Arches > H. Royal Arches Area > Valley North Side > Yosemite Valley > Yosemite National Park > California",https://www.mountainproject.com/route/105862881/royal-arches-510-or-57-a0,3.4,-1,"Trad, Aid","5.10- A0",15,2000,37.74724,-119.57128
"Mr. Natural","6. GPA - Right Side > I. Glacier Point Apron > Valley South Side > Yosemite Valley > Yosemite National Park > California",https://www.mountainproject.com/route/105954972/mr-natural,3.9,-1,Trad,5.10+,1,160,37.7337,-119.56956
"Lurking Fear","2. Southwest Face > B. El Capitan > Valley North Side > Yosemite Valley > Yosemite National Park > California",https://www.mountainproject.com/route/106110258/lurking-fear,3.5,-1,"Trad, Aid","5.7 C2",19,2000,37.73051,-119.63828
"Blues Riff","Phobos/Deimos Cliff > Tuolumne Meadows > Yosemite National Park > California",https://www.mountainproject.com/route/105862969/blues-riff,3.9,-1,Trad,5.11,2,250,37.84976,-119.44817
"Sacherer Cracker","The Slack to West Buttress > Southwest Base > 1. Base Routes > B. El Capitan > Valley North Side > Yosemite Valley > Yosemite National Park > California",https://www.mountainproject.com/route/105945535/sacherer-cracker,3.8,-1,Trad,5.10a,1,150,37.73009,-119.63786
"On the Lamb","West Face of the Lamb > Lamb Dome > Tuolumne Meadows > Yosemite National Park > California",https://www.mountainproject.com/route/105862991/on-the-lamb,3.8,-1,Trad,5.9,4,,37.86932,-119.42588
"Lunatic Fringe","Reed's Pinnacle > At. Reed's Pinnacle Area > Lower Merced River Canyon > Yosemite Valley > Yosemite National Park > California",https://www.mountainproject.com/route/105870727/lunatic-fringe,3.9,-1,Trad,5.10c,1,140,37.72439,-119.70063
"Outer Limits","The Cookie Cliff > Aj. Cookie Area > Lower Merced River Canyon > Yosemite Valley > Yosemite National Park > California",https://www.mountainproject.com/route/105874465/outer-limits,3.8,-1,Trad,5.10c,3,190,37.71772,-119.71881
"East Buttress","4. East Buttress > B. El Capitan > Valley North Side > Yosemite Valley > Yosemite National Park > California",https://www.mountainproject.com/route/105833467/east-buttress,3.5,-1,Trad,5.10b,9,1200,37.73,-119.62548
"Lost Arrow Tip","Lost Arrow Spire > E. Yosemite Falls Area > Valley North Side > Yosemite Valley > Yosemite National Park > California",https://www.mountainproject.com/route/105912192/lost-arrow-tip,3.8,-1,"Trad, Aid","5.7 C2",2,250,37.75604,-119.5941
"Catchy Corner","The Cookie Cliff > Aj. Cookie Area > Lower Merced River Canyon > Yosemite Valley > Yosemite National Park > California",https://www.mountainproject.com/route/105991865/catchy-corner,3.9,-1,Trad,5.11a,1,115,37.71772,-119.71881
Crack-a-Go-Go,"The Cookie Cliff > Aj. Cookie Area > Lower Merced River Canyon > Yosemite Valley > Yosemite National Park > California",https://www.mountainproject.com/route/105872888/crack-a-go-go,3.9,-1,Trad,"5.11c PG13",1,105,37.71772,-119.71881
Voyager,"Fifi Buttress > Q. Leaning Tower Area > Valley South Side > Yosemite Valley > Yosemite National Park > California",https://www.mountainproject.com/route/109039598/voyager,3.8,-1,Trad,5.11c,7,700,37.71073,-119.65013
"The Moratorium","1. Schultz's Ridge > C. El Cap Picnic Area (Eagle Creek) > Valley North Side > Yosemite Valley > Yosemite National Park > California",https://www.mountainproject.com/route/105874604/the-moratorium,3.8,-1,Trad,5.11b,4,,37.72843,-119.62458
"Salathe (pitch 1)","Moby Dick and Pterodactyl Terrace > Southwest Base > 1. Base Routes > B. El Capitan > Valley North Side > Yosemite Valley > Yosemite National Park > California",https://www.mountainproject.com/route/105870703/salathe-pitch-1,3.8,-1,Trad,5.10c,1,160,37.72875,-119.63724
"East Buttress","6. Middle Cathedral Rock > P. Cathedral Area > Valley South Side > Yosemite Valley > Yosemite National Park > California",https://www.mountainproject.com/route/105915125/east-buttress,3.6,-1,"Trad, Aid","5.10c A0",11,1100,37.7165,-119.6363
"Reed's Pinnacle-Direct Route","Reed's Pinnacle > At. Reed's Pinnacle Area > Lower Merced River Canyon > Yosemite Valley > Yosemite National Park > California",https://www.mountainproject.com/route/105865301/reeds-pinnacle-direct-route,3.7,-1,Trad,5.10a,3,,37.72439,-119.70063
"Red Zinger","The Cookie Cliff > Aj. Cookie Area > Lower Merced River Canyon > Yosemite Valley > Yosemite National Park > California",https://www.mountainproject.com/route/106026258/red-zinger,3.9,-1,Trad,5.11+,1,100,37.71772,-119.71881
"West Face","Leaning Tower > Q. Leaning Tower Area > Valley South Side > Yosemite Valley > Yosemite National Park > California",https://www.mountainproject.com/route/106187777/west-face,3.7,-1,"Trad, Aid","5.7 C2",11,1000,37.71281,-119.64769
"Bishops Terrace","G. Church Bowl > Valley North Side > Yosemite Valley > Yosemite National Park > California",https://www.mountainproject.com/route/105872317/bishops-terrace,3.6,-1,Trad,5.8,1,150,37.74908,-119.58015
"Moby Dick Center","Moby Dick and Pterodactyl Terrace > Southwest Base > 1. Base Routes > B. El Capitan > Valley North Side > Yosemite Valley > Yosemite National Park > California",https://www.mountainproject.com/route/105870188/moby-dick-center,3.7,-1,Trad,5.10a,1,130,37.72875,-119.63724
"New Dimensions","Ad. Arch Rock > Lower Merced River Canyon > Yosemite Valley > Yosemite National Park > California",https://www.mountainproject.com/route/105992537/new-dimensions,3.8,-1,Trad,5.11a,4,400,37.6893,-119.7334
"Crest Jewel (and Crest Jewel Direct)","J. North Dome > Valley North Side > Yosemite Valley > Yosemite National Park > California",https://www.mountainproject.com/route/105862890/crest-jewel-and-crest-jewel-direct,3.7,-1,Trad,"5.10 R",14,1200,37.75783,-119.56211
"West Crack","West Face > DAFF Dome > DAFF Area > Tuolumne Meadows > Yosemite National Park > California",https://www.mountainproject.com/route/105859422/west-crack,3.6,-1,Trad,5.9,5,430,37.8795,-119.41345
"South Face","I. Washington Column > Valley North Side > Yosemite Valley > Yosemite National Park > California",https://www.mountainproject.com/route/105847471/south-face,3.5,-1,"Trad, Aid","5.8 C1",11,1200,37.74778,-119.559
"Bombs over Tokyo (1st pitch)","West Face > DAFF Dome > DAFF Area > Tuolumne Meadows > Yosemite National Park > California",https://www.mountainproject.com/route/106141398/bombs-over-tokyo-1st-pitch,3.8,-1,Trad,5.10c,1,105,37.8795,-119.41345
"Cookie Monster","The Cookie Cliff > Aj. Cookie Area > Lower Merced River Canyon > Yosemite Valley > Yosemite National Park > California",https://www.mountainproject.com/route/105992940/cookie-monster,3.7,-1,Sport,5.12a,1,,37.71772,-119.71881
Manana,"N. Sentinel Creek Area > Valley South Side > Yosemite Valley > Yosemite National Park > California",https://www.mountainproject.com/route/106615858/manana,3.8,-1,Trad,5.10d,1,120,37.72396,-119.60637
"Five and Dime","Au. Five and Dime Cliff > Lower Merced River Canyon > Yosemite Valley > Yosemite National Park > California",https://www.mountainproject.com/route/105870690/five-and-dime,3.7,-1,Trad,5.10d,1,80,37.72288,-119.69922
"Jo Jo","I. Washington Column > Valley North Side > Yosemite Valley > Yosemite National Park > California",https://www.mountainproject.com/route/106748196/jo-jo,3.8,-1,Trad,5.10b/c,1,85,37.74778,-119.559
"Northeast Buttress","5. Higher Cathedral Rock > P. Cathedral Area > Valley South Side > Yosemite Valley > Yosemite National Park > California",https://www.mountainproject.com/route/105862896/northeast-buttress,3.7,-1,Trad,"5.9+ PG13",11,900,37.71439,-119.63469
"Lucky Streaks","West Face > Fairview Dome > Tuolumne Meadows > Yosemite National Park > California",https://www.mountainproject.com/route/105840692/lucky-streaks,3.7,-1,Trad,5.10+,6,650,37.87012,-119.40627
"The Great Escape","L.  The Chapel Wall > Valley South Side > Yosemite Valley > Yosemite National Park > California",https://www.mountainproject.com/route/105867142/the-great-escape,3.8,-1,Sport,5.11d,4,449,37.738,-119.59215
"Hobbit Book","West Face > Mariuolumne Dome > Tuolumne Meadows > Yosemite National Park > California",https://www.mountainproject.com/route/105861268/hobbit-book,3.6,-1,Trad,5.7,4,,37.8623,-119.42265
Ahab,"Moby Dick and Pterodactyl Terrace > Southwest Base > 1. Base Routes > B. El Capitan > Valley North Side > Yosemite Valley > Yosemite National Park > California",https://www.mountainproject.com/route/105872907/ahab,3.6,-1,Trad,5.10b,1,130,37.72875,-119.63724
"Wheat Thin","The Cookie Cliff > Aj. Cookie Area > Lower Merced River Canyon > Yosemite Valley > Yosemite National Park > California",https://www.mountainproject.com/route/105871252/wheat-thin,3.7,-1,Trad,5.10c,1,80,37.71772,-119.71881
"Blown Away","West Face > DAFF Dome > DAFF Area > Tuolumne Meadows > Yosemite National Park > California",https://www.mountainproject.com/route/105862936/blown-away,3.7,-1,Trad,"5.9 PG13",5,500,37.8795,-119.41345
"The Prow","I. Washington Column > Valley North Side > Yosemite Valley > Yosemite National Park > California",https://www.mountainproject.com/route/105911858/the-prow,3.6,-1,"Trad, Aid","5.8 C2",12,1200,37.74778,-119.559
"South West Face (Harding) Route","Mt. Conness > Glen Aulin Area > Tuolumne Meadows > Yosemite National Park > California",https://www.mountainproject.com/route/105983194/south-west-face-harding-route,3.7,-1,"Trad, Alpine",5.10c,9,1200,37.96688,-119.32128
Phobos,"Phobos/Deimos Cliff > Tuolumne Meadows > Yosemite National Park > California",https://www.mountainproject.com/route/105862966/phobos,3.7,-1,Trad,5.9+,3,275,37.84976,-119.44817
Tideline,"Olmsted Canyon Right > Olmsted Area > Tuolumne Meadows > Yosemite National Park > California",https://www.mountainproject.com/route/106225753/tideline,3.7,-1,Trad,5.11a,1,70,37.81564,-119.48839
Midterm,"Ad. Arch Rock > Lower Merced River Canyon > Yosemite Valley > Yosemite National Park > California",https://www.mountainproject.com/route/105915149/midterm,3.7,-1,Trad,5.10b,1,130,37.6893,-119.7334
"The Grack - Center","3. The Grack Area > I. Glacier Point Apron > Valley South Side > Yosemite Valley > Yosemite National Park > California",https://www.mountainproject.com/route/105862623/the-grack-center,3.4,-1,Trad,5.6,3,500,37.72993,-119.56355
"Regular Route (Higher Cathedral Spire)","3. Higher Cathedral Spire > P. Cathedral Area > Valley South Side > Yosemite Valley > Yosemite National Park > California",https://www.mountainproject.com/route/105956387/regular-route-higher-cathedral-spire,3.5,-1,Trad,5.9,4,400,37.71404,-119.63226
Yin-Yang,"N. Sentinel Creek Area > Valley South Side > Yosemite Valley > Yosemite National Park > California",https://www.mountainproject.com/route/107201090/yin-yang,3.7,-1,Trad,5.10d,2,120,37.72396,-119.60637
Gripper,"Ad. Arch Rock > Lower Merced River Canyon > Yosemite Valley > Yosemite National Park > California",https://www.mountainproject.com/route/106026157/gripper,3.7,-1,Trad,5.10b,3,270,37.6893,-119.7334
"South Face Route","J. North Dome > Valley North Side > Yosemite Valley > Yosemite National Park > California",https://www.mountainproject.com/route/105984188/south-face-route,3.6,-1,Trad,5.8,7,900,37.75783,-119.56211
"North Ridge of Matthes Crest","Matthes Crest > Cathedral Range > Tuolumne Meadows > Yosemite National Park > California",https://www.mountainproject.com/route/108343012/north-ridge-of-matthes-crest,3.9,-1,"Trad, Alpine",5.8,1,1200,37.8186,-119.3992
"New Diversions","Ap. New Diversions > Lower Merced River Canyon > Yosemite Valley > Yosemite National Park > California",https://www.mountainproject.com/route/105862924/new-diversions,3.7,-1,Trad,5.10a,2,115,37.72262,-119.70258
"The Gram Traverse","Drug Dome > Tuolumne Meadows > Yosemite National Park > California",https://www.mountainproject.com/route/105862947/the-gram-traverse,3.6,-1,Trad,5.10d,3,,37.86461,-119.42215
"Do or Fly","Puppy Dome > Tuolumne Meadows > Yosemite National Park > California",https://www.mountainproject.com/route/105926067/do-or-fly,3.6,-1,Trad,5.11c,1,80,37.87456,-119.34524
"Generator Crack","Az. Generator Station > Lower Merced River Canyon > Yosemite Valley > Yosemite National Park > California",https://www.mountainproject.com/route/105952381/generator-crack,3.6,-1,"Trad, TR",5.10c,1,60,37.722,-119.7032
"Drive By Shooting","L.  The Chapel Wall > Valley South Side > Yosemite Valley > Yosemite National Park > California",https://www.mountainproject.com/route/106690707/drive-by-shooting,3.6,-1,Sport,5.12a,1,70,37.738,-119.59215
"Braille Book","5. Higher Cathedral Rock > P. Cathedral Area > Valley South Side > Yosemite Valley > Yosemite National Park > California",https://www.mountainproject.com/route/105833552/braille-book,3.5,-1,Trad,5.8+,6,700,37.71439,-119.63469
Commitment,"First Tier > Five Open Books > E. Yosemite Falls Area > Valley North Side > Yosemite Valley > Yosemite National Park > California",https://www.mountainproject.com/route/105867013/commitment,3.4,-1,Trad,5.9,3,320,37.74798,-119.59857
Catchy,"The Cookie Cliff > Aj. Cookie Area > Lower Merced River Canyon > Yosemite Valley > Yosemite National Park > California",https://www.mountainproject.com/route/105939236/catchy,3.6,-1,Trad,5.10d,1,100,37.71772,-119.71881
"Center of the Universe","Fifi Buttress > Q. Leaning Tower Area > Valley South Side > Yosemite Valley > Yosemite National Park > California",https://www.mountainproject.com/route/111928132/center-of-the-universe,3.4,-1,Trad,5.11-,13,1000,37.71073,-119.65013
"Crescent Arch","West Face > DAFF Dome > DAFF Area > Tuolumne Meadows > Yosemite National Park > California",https://www.mountainproject.com/route/105860641/crescent-arch,3.5,-1,Trad,5.10a,5,,37.8795,-119.41345
"West Pillar Direct","Eichorn Pinnacle > Cathedral Range > Tuolumne Meadows > Yosemite National Park > California",https://www.mountainproject.com/route/108255583/west-pillar-direct,3.5,-1,"Trad, Alpine",5.10-,5,700,37.84763,-119.40724
"Crying Time Again","Northwest Face > Lembert Dome > Tuolumne Meadows > Yosemite National Park > California",https://www.mountainproject.com/route/105923367/crying-time-again,3.5,-1,Trad,5.10a,4,400,37.88103,-119.35106
Jamcrack,"Sunnyside Bench > E. Yosemite Falls Area > Valley North Side > Yosemite Valley > Yosemite National Park > California",https://www.mountainproject.com/route/105866367/jamcrack,3.5,-1,Trad,5.9,2,160,37.7507,-119.59446
"South Crack","Stately Pleasure Dome > Tuolumne Meadows > Yosemite National Park > California",https://www.mountainproject.com/route/105840361/south-crack,3.4,-1,"Trad, Alpine","5.8 R",6,600,37.83546,-119.4577
"Monday Morning Slab, Harry Daley Route","5. Monday Morning Slab > I. Glacier Point Apron > Valley South Side > Yosemite Valley > Yosemite National Park > California",https://www.mountainproject.com/route/105939242/monday-morning-slab-harry-daley-route,3.4,-1,Trad,5.8,2,210,37.73295,-119.56601
"The Dike Route","Pywiack Dome > Tuolumne Meadows > Yosemite National Park > California",https://www.mountainproject.com/route/105862957/the-dike-route,3.5,-1,"Trad, Sport","5.9 R",5,,37.8453,-119.444
"Nutcracker 5.9 Start Variation","5. Manure Pile Buttress (aka Ranger Rock) > C. El Cap Picnic Area (Eagle Creek) > Valley North Side > Yosemite Valley > Yosemite National Park > California",https://www.mountainproject.com/route/105862632/nutcracker-59-start-variation,3.4,-1,Trad,5.9,2,200,37.73059,-119.619
"Direct Northwest Face","Northwest Face > Lembert Dome > Tuolumne Meadows > Yosemite National Park > California",https://www.mountainproject.com/route/105973663/direct-northwest-face,3.5,-1,Trad,5.10b/c,3,400,37.88103,-119.35106
"Absolutely Free, Center","2. Lower Brother > D. Camp 4 Area > Valley North Side > Yosemite Valley > Yosemite National Park > California",https://www.mountainproject.com/route/106451171/absolutely-free-center,3.4,-1,Trad,5.9,3,700,37.73378,-119.61232
"Mac Daddy","North Buttress Base Routes > 7. Lower Cathedral Area > P. Cathedral Area > Valley South Side > Yosemite Valley > Yosemite National Park > California",https://www.mountainproject.com/route/106790674/mac-daddy,3.5,-1,Sport,5.11a,1,90,37.71997,-119.64514
"New Deviations","Ap. New Diversions > Lower Merced River Canyon > Yosemite Valley > Yosemite National Park > California",https://www.mountainproject.com/route/106807133/new-deviations,3.4,-1,Trad,5.9,1,150,37.72262,-119.70258
"Waverly Wafer","The Cookie Cliff > Aj. Cookie Area > Lower Merced River Canyon > Yosemite Valley > Yosemite National Park > California",https://www.mountainproject.com/route/105992951/waverly-wafer,3.4,-1,Trad,5.11a,1,85,37.71772,-119.71881
Hardd,"The Cookie Cliff > Aj. Cookie Area > Lower Merced River Canyon > Yosemite Valley > Yosemite National Park > California",https://www.mountainproject.com/route/105991831/hardd,3.5,-1,Trad,"5.11b PG13",2,200,37.71772,-119.71881
"West Pillar","Eichorn Pinnacle > Cathedral Range > Tuolumne Meadows > Yosemite National Park > California",https://www.mountainproject.com/route/106110296/west-pillar,3.3,-1,"Trad, Alpine",5.9,5,600,37.84763,-119.40724
"Stone Groove","Reed's Pinnacle > At. Reed's Pinnacle Area > Lower Merced River Canyon > Yosemite Valley > Yosemite National Park > California",https://www.mountainproject.com/route/105898699/stone-groove,3.4,-1,Trad,5.10b,1,80,37.72439,-119.70063
"Super Hands (aka Ranger Crack)","Lower Falls Amphitheater > E. Yosemite Falls Area > Valley North Side > Yosemite Valley > Yosemite National Park > California",https://www.mountainproject.com/route/105914577/super-hands-aka-ranger-crack,3.3,-1,Trad,5.8,1,70,37.75124,-119.59748
"*CLOSED FOR SAFETY* Super Slide","Western Royal Arches > Royal Arches > H. Royal Arches Area > Valley North Side > Yosemite Valley > Yosemite National Park > California",https://www.mountainproject.com/route/105915124/closed-for-safety-super-slide,3.2,-1,Trad,5.9,5,500,37.74873,-119.57265
"The Great White Book","Stately Pleasure Dome > Tuolumne Meadows > Yosemite National Park > California",https://www.mountainproject.com/route/105835754/the-great-white-book,3.2,-1,"Trad, Alpine","5.6 R",5,450,37.83546,-119.4577
"Little Sheeba","West Face of the Lamb > Lamb Dome > Tuolumne Meadows > Yosemite National Park > California",https://www.mountainproject.com/route/105916648/little-sheeba,3.3,-1,"Trad, TR",5.10a,1,110,37.86932,-119.42588
"The Tube","Am. Pat and Jack Pinnacle > Lower Merced River Canyon > Yosemite Valley > Yosemite National Park > California",https://www.mountainproject.com/route/106026200/the-tube,3.3,-1,Trad,5.11a,1,100,37.72373,-119.71362
"The Super Slacker Highway","Am. Pat and Jack Pinnacle > Lower Merced River Canyon > Yosemite Valley > Yosemite National Park > California",https://www.mountainproject.com/route/108597033/the-super-slacker-highway,3.2,-1,Trad,5.10b,8,600,37.72373,-119.71362
"Knob Job","Am. Pat and Jack Pinnacle > Lower Merced River Canyon > Yosemite Valley > Yosemite National Park > California",https://www.mountainproject.com/route/105870718/knob-job,3.3,-1,Trad,5.10b,1,105,37.72373,-119.71362
"Orange Plasma","West Face > East Cottage Dome (aka Erratic Dome) > Cottage Domes > DAFF Area > Tuolumne Meadows > Yosemite National Park > California",https://www.mountainproject.com/route/106509898/orange-plasma,3.7,-1,"Sport, Alpine",5.11a,1,85,37.8846,-119.40825
"Errett By Bit","Dozier Dome > Tuolumne Meadows > Yosemite National Park > California",https://www.mountainproject.com/route/108304345/errett-by-bit,3.2,-1,Trad,5.7,2,260,37.84942,-119.43165
Mockery,"Au. Five and Dime Cliff > Lower Merced River Canyon > Yosemite Valley > Yosemite National Park > California",https://www.mountainproject.com/route/105974243/mockery,3.2,-1,Sport,5.8,1,70,37.72288,-119.69922
Selaginella,"Second Tier > Five Open Books > E. Yosemite Falls Area > Valley North Side > Yosemite Valley > Yosemite National Park > California",https://www.mountainproject.com/route/106097044/selaginella,3.2,-1,Trad,5.8,4,560,37.75023,-119.59906
"Sherrie's Crack","Am. Pat and Jack Pinnacle > Lower Merced River Canyon > Yosemite Valley > Yosemite National Park > California",https://www.mountainproject.com/route/105874595/sherries-crack,3.2,-1,Trad,5.10c,1,80,37.72373,-119.71362
Dagger,"Lower Falls Amphitheater > E. Yosemite Falls Area > Valley North Side > Yosemite Valley > Yosemite National Park > California",https://www.mountainproject.com/route/106029002/dagger,3.6,-1,Trad,5.11a,1,100,37.75124,-119.59748
Butterfingers,"The Cookie Cliff > Aj. Cookie Area > Lower Merced River Canyon > Yosemite Valley > Yosemite National Park > California",https://www.mountainproject.com/route/106026248/butterfingers,3.3,-1,Trad,5.11a,1,80,37.71772,-119.71881
"Positively 4th Street","2. Lower Brother > D. Camp 4 Area > Valley North Side > Yosemite Valley > Yosemite National Park > California",https://www.mountainproject.com/route/105986641/positively-4th-street,3.2,-1,Trad,5.9,2,150,37.73378,-119.61232
"American Wet Dream","Mountaineer's Dome > Tenaya Lake Picnic Area > Tuolumne Meadows > Yosemite National Park > California",https://www.mountainproject.com/route/106264809/american-wet-dream,3.2,-1,Trad,"5.10b R",5,500,37.84392,-119.45002
"Meat Grinder","The Cookie Cliff > Aj. Cookie Area > Lower Merced River Canyon > Yosemite Valley > Yosemite National Park > California",https://www.mountainproject.com/route/105872329/meat-grinder,3.2,-1,Trad,5.10c,3,250,37.71772,-119.71881
"Aqua Knobby","Pywiack Dome > Tuolumne Meadows > Yosemite National Park > California",https://www.mountainproject.com/route/105898680/aqua-knobby,3.2,-1,Trad,"5.9 PG13",4,375,37.8453,-119.444
"After Seven","5. Manure Pile Buttress (aka Ranger Rock) > C. El Cap Picnic Area (Eagle Creek) > Valley North Side > Yosemite Valley > Yosemite National Park > California",https://www.mountainproject.com/route/105874735/after-seven,3.1,-1,Trad,5.8,1,115,37.73059,-119.619
"South by Southwest","4. Lower Cathedral Spire > P. Cathedral Area > Valley South Side > Yosemite Valley > Yosemite National Park > California",https://www.mountainproject.com/route/106026264/south-by-southwest,3.1,-1,Trad,5.10d,5,600,37.7147,-119.63078
"West Country","Stately Pleasure Dome > Tuolumne Meadows > Yosemite National Park > California",https://www.mountainproject.com/route/105836047/west-country,3.1,-1,"Trad, Alpine",5.7,4,400,37.83546,-119.4577
"After Six","5. Manure Pile Buttress (aka Ranger Rock) > C. El Cap Picnic Area (Eagle Creek) > Valley North Side > Yosemite Valley > Yosemite National Park > California",https://www.mountainproject.com/route/105862639/after-six,2.9,-1,Trad,5.7,5,600,37.73059,-119.619
"West Face","2. Southwest Face > B. El Capitan > Valley North Side > Yosemite Valley > Yosemite National Park > California",https://www.mountainproject.com/route/106065890/west-face,3.7,-1,Trad,5.11c,20,1800,37.73051,-119.63828
"Fish Crack","Cascade Falls - Left > An. Cascade Area > Lower Merced River Canyon > Yosemite Valley > Yosemite National Park > California",https://www.mountainproject.com/route/106351829/fish-crack,3.8,-1,Trad,5.12a,1,100,37.72652,-119.71267
"Reed's Pinnacle Regular Route","Reed's Pinnacle > At. Reed's Pinnacle Area > Lower Merced River Canyon > Yosemite Valley > Yosemite National Park > California",https://www.mountainproject.com/route/106308782/reeds-pinnacle-regular-route,3.1,-1,Trad,5.9,4,300,37.72439,-119.70063
"The Surprise","First Tier > Five Open Books > E. Yosemite Falls Area > Valley North Side > Yosemite Valley > Yosemite National Park > California",https://www.mountainproject.com/route/105992030/the-surprise,3.1,-1,Trad,5.10a,3,400,37.74798,-119.59857
"La Cosita, Right","Little John and La Cosita > Southwest Base > 1. Base Routes > B. El Capitan > Valley North Side > Yosemite Valley > Yosemite National Park > California",https://www.mountainproject.com/route/105877768/la-cosita-right,3.1,-1,Trad,5.9,1,,37.72953,-119.63752
"Lazy Bum","Sunnyside Bench > E. Yosemite Falls Area > Valley North Side > Yosemite Valley > Yosemite National Park > California",https://www.mountainproject.com/route/105878833/lazy-bum,3.1,-1,Trad,5.10d,2,160,37.7507,-119.59446
"The Great Circle","South Flank > DAFF Dome > DAFF Area > Tuolumne Meadows > Yosemite National Park > California",https://www.mountainproject.com/route/105879734/the-great-circle,3.1,-1,Trad,5.10a,2,165,37.87804,-119.41351
"Darth Vader's Revenge","Low Profile Dome > Tuolumne Meadows > Yosemite National Park > California",https://www.mountainproject.com/route/105866205/darth-vaders-revenge,3.1,-1,Trad,5.10a,1,100,37.85617,-119.44067
"Chicken Pie","Ap. New Diversions > Lower Merced River Canyon > Yosemite Valley > Yosemite National Park > California",https://www.mountainproject.com/route/106655892/chicken-pie,3.2,-1,Trad,5.9,2,200,37.72262,-119.70258
"Cooke Book","West Face > DAFF Dome > DAFF Area > Tuolumne Meadows > Yosemite National Park > California",https://www.mountainproject.com/route/105990833/cooke-book,3.0,-1,Trad,5.10a,4,500,37.8795,-119.41345
Munginella,"First Tier > Five Open Books > E. Yosemite Falls Area > Valley North Side > Yosemite Valley > Yosemite National Park > California",https://www.mountainproject.com/route/105867008/munginella,2.9,-1,Trad,5.6,3,300,37.74798,-119.59857
"Highway Star","Aw. Highway Star > Lower Merced River Canyon > Yosemite Valley > Yosemite National Park > California",https://www.mountainproject.com/route/106009915/highway-star,3.1,-1,"Trad, TR",5.10a,1,60,37.71954,-119.67714
Hari-Kiri,"N. Sentinel Creek Area > Valley South Side > Yosemite Valley > Yosemite National Park > California",https://www.mountainproject.com/route/106616004/hari-kiri,3.1,-1,Trad,5.10a,1,120,37.72396,-119.60637
"Holdless Horror","Dozier Dome > Tuolumne Meadows > Yosemite National Park > California",https://www.mountainproject.com/route/106014323/holdless-horror,3.0,-1,Trad,5.6,4,550,37.84942,-119.43165
"Werner's Ant Trees","First Tier > Five Open Books > E. Yosemite Falls Area > Valley North Side > Yosemite Valley > Yosemite National Park > California",https://www.mountainproject.com/route/105945908/werners-ant-trees,3.1,-1,Trad,5.10c,1,75,37.74798,-119.59857
Shagadelic,"West Face, Center > Medlicott Dome > Tuolumne Meadows > Yosemite National Park > California",https://www.mountainproject.com/route/106222444/shagadelic,3.0,-1,Trad,5.8,4,500,37.85919,-119.42859
Knuckleheads,"Am. Pat and Jack Pinnacle > Lower Merced River Canyon > Yosemite Valley > Yosemite National Park > California",https://www.mountainproject.com/route/106346180/knuckleheads,3.0,-1,Sport,5.10,1,90,37.72373,-119.71362
"Hermaphrodite Flake","Stately Pleasure Dome > Tuolumne Meadows > Yosemite National Park > California",https://www.mountainproject.com/route/105836052/hermaphrodite-flake,2.9,-1,"Trad, Alpine",5.7,4,400,37.83546,-119.4577
Kor-Beck,"6. Middle Cathedral Rock > P. Cathedral Area > Valley South Side > Yosemite Valley > Yosemite National Park > California",https://www.mountainproject.com/route/105898685/kor-beck,2.9,-1,Trad,5.9,13,1400,37.7165,-119.6363
"Golden Needles","Cascade Falls - Left > An. Cascade Area > Lower Merced River Canyon > Yosemite Valley > Yosemite National Park > California",https://www.mountainproject.com/route/105877221/golden-needles,3.0,-1,Trad,5.8,2,220,37.72652,-119.71267
"Monday Morning Slab, Chouinard Crack","5. Monday Morning Slab > I. Glacier Point Apron > Valley South Side > Yosemite Valley > Yosemite National Park > California",https://www.mountainproject.com/route/105958845/monday-morning-slab-chouinard-crack,2.9,-1,Trad,5.7,1,,37.73295,-119.56601
Boneheads,"Am. Pat and Jack Pinnacle > Lower Merced River Canyon > Yosemite Valley > Yosemite National Park > California",https://www.mountainproject.com/route/105990385/boneheads,3.0,-1,Sport,5.10b,1,80,37.72373,-119.71362
"Lena's Lieback","A. Swan Slab > E. Yosemite Falls Area > Valley North Side > Yosemite Valley > Yosemite National Park > California",https://www.mountainproject.com/route/105867066/lenas-lieback,2.9,-1,Trad,5.9,3,190,37.74499,-119.5999
"Guiding Light","Lower Falls Amphitheater > E. Yosemite Falls Area > Valley North Side > Yosemite Valley > Yosemite National Park > California",https://www.mountainproject.com/route/105874750/guiding-light,3.0,-1,Trad,5.10b,1,80,37.75124,-119.59748
Ejesta,"Reed's Pinnacle > At. Reed's Pinnacle Area > Lower Merced River Canyon > Yosemite Valley > Yosemite National Park > California",https://www.mountainproject.com/route/105913755/ejesta,2.9,-1,Trad,5.8,2,210,37.72439,-119.70063
"Ivory Tower, Center","Olmsted Canyon Right > Olmsted Area > Tuolumne Meadows > Yosemite National Park > California",https://www.mountainproject.com/route/106225772/ivory-tower-center,2.9,-1,Trad,5.10a,1,60,37.81564,-119.48839
"Leanie Meanie","Ad. Arch Rock > Lower Merced River Canyon > Yosemite Valley > Yosemite National Park > California",https://www.mountainproject.com/route/105992529/leanie-meanie,3.6,-1,Trad,5.11b,3,350,37.6893,-119.7334
"Pee Pee Pillar","6. Middle Cathedral Rock > P. Cathedral Area > Valley South Side > Yosemite Valley > Yosemite National Park > California",https://www.mountainproject.com/route/105870699/pee-pee-pillar,2.9,-1,Trad,5.10a,1,95,37.7165,-119.6363
"The Shield","2. Southwest Face > B. El Capitan > Valley North Side > Yosemite Valley > Yosemite National Park > California",https://www.mountainproject.com/route/107429493/the-shield,3.9,-1,"Trad, Aid","5.8 A3 PG13",30,2900,37.73051,-119.63828
"Gold Dust","L.  The Chapel Wall > Valley South Side > Yosemite Valley > Yosemite National Park > California",https://www.mountainproject.com/route/105877899/gold-dust,2.9,-1,Trad,5.10d,1,80,37.738,-119.59215
"Great Pumpkin","West Face > Fairview Dome > Tuolumne Meadows > Yosemite National Park > California",https://www.mountainproject.com/route/106042450/great-pumpkin,3.1,-1,Trad,"5.8 R",5,700,37.87012,-119.40627
"Goodrich Pinnacle-Right Side","4. Goodrich Pinnacle Area > I. Glacier Point Apron > Valley South Side > Yosemite Valley > Yosemite National Park > California",https://www.mountainproject.com/route/105964137/goodrich-pinnacle-right-side,2.8,-1,Trad,5.9,8,750,37.7323,-119.56492
"Arrowhead Arête","Arrowhead Arete > E. Yosemite Falls Area > Valley North Side > Yosemite Valley > Yosemite National Park > California",https://www.mountainproject.com/route/106269845/arrowhead-arete,3.4,-1,Trad,5.8+,7,,37.7558,-119.58906
"Bull Dozier","Dozier Dome > Tuolumne Meadows > Yosemite National Park > California",https://www.mountainproject.com/route/106510747/bull-dozier,2.8,-1,Trad,5.7,3,400,37.84942,-119.43165
"Babble On","Am. Pat and Jack Pinnacle > Lower Merced River Canyon > Yosemite Valley > Yosemite National Park > California",https://www.mountainproject.com/route/105990395/babble-on,2.8,-1,Trad,5.10a,1,80,37.72373,-119.71362
"Golfer's Route","Low Profile Dome > Tuolumne Meadows > Yosemite National Park > California",https://www.mountainproject.com/route/105866027/golfers-route,2.8,-1,Trad,"5.7 R",1,165,37.85617,-119.44067
"Heathenistic Pursuit","L.  The Chapel Wall > Valley South Side > Yosemite Valley > Yosemite National Park > California",https://www.mountainproject.com/route/105945903/heathenistic-pursuit,2.9,-1,Trad,5.10,1,80,37.738,-119.59215
Fingertips,"South Flank > DAFF Dome > DAFF Area > Tuolumne Meadows > Yosemite National Park > California",https://www.mountainproject.com/route/105879729/fingertips,2.9,-1,Sport,"5.10a R",2,,37.87804,-119.41351
"Flying In The Mountains","Aa. Parkline Slab > Lower Merced River Canyon > Yosemite Valley > Yosemite National Park > California",https://www.mountainproject.com/route/106713951/flying-in-the-mountains,3.6,-1,Trad,5.11a,6,800,37.67875,-119.74886
"Lord Caffeine","Olmsted Canyon Right > Olmsted Area > Tuolumne Meadows > Yosemite National Park > California",https://www.mountainproject.com/route/106225765/lord-caffeine,3.6,-1,Trad,5.11a,1,80,37.81564,-119.48839
"Stoner's Highway","6. Middle Cathedral Rock > P. Cathedral Area > Valley South Side > Yosemite Valley > Yosemite National Park > California",https://www.mountainproject.com/route/105848567/stoners-highway,3.8,-1,Trad,"5.10c R",10,1000,37.7165,-119.6363
"Ten Years After","Lower Falls Amphitheater > E. Yosemite Falls Area > Valley North Side > Yosemite Valley > Yosemite National Park > California",https://www.mountainproject.com/route/105874724/ten-years-after,3.5,-1,Trad,5.10d,1,80,37.75124,-119.59748
"Triple Direct","2. Southwest Face > B. El Capitan > Valley North Side > Yosemite Valley > Yosemite National Park > California",https://www.mountainproject.com/route/106141505/triple-direct,3.6,-1,"Trad, Aid","5.9 C2",30,3200,37.73051,-119.63828
Energizer,"G. Church Bowl > Valley North Side > Yosemite Valley > Yosemite National Park > California",https://www.mountainproject.com/route/105894981/energizer,3.0,-1,Sport,5.11b,1,80,37.74908,-119.58015
"Desperate Straights","Am. Pat and Jack Pinnacle > Lower Merced River Canyon > Yosemite Valley > Yosemite National Park > California",https://www.mountainproject.com/route/105874615/desperate-straights,3.4,-1,Trad,5.10b,1,,37.72373,-119.71362
"Doggie Deviations","5. Camp 4 Wall > D. Camp 4 Area > Valley North Side > Yosemite Valley > Yosemite National Park > California",https://www.mountainproject.com/route/105949939/doggie-deviations,2.9,-1,Trad,5.9,1,95,37.74268,-119.60709
"The Yawn","West Face, Left > Medlicott Dome > Tuolumne Meadows > Yosemite National Park > California",https://www.mountainproject.com/route/105903295/the-yawn,3.6,-1,Trad,5.9,4,600,37.86017,-119.42856
"Excellent Smithers","West Face, Center > Medlicott Dome > Tuolumne Meadows > Yosemite National Park > California",https://www.mountainproject.com/route/105903304/excellent-smithers,3.3,-1,Trad,5.10a,4,400,37.85919,-119.42859
Hoodwink,"Harlequin Dome > Tenaya Lake Picnic Area > Tuolumne Meadows > Yosemite National Park > California",https://www.mountainproject.com/route/105973656/hoodwink,3.2,-1,Trad,5.10-,4,420,37.84009,-119.45521
"The Good Book","4. The Folly > D. Camp 4 Area > Valley North Side > Yosemite Valley > Yosemite National Park > California",https://www.mountainproject.com/route/105865214/the-good-book,3.9,-1,Trad,5.10d,5,,37.74177,-119.60763
"English Breakfast Crack","Ad. Arch Rock > Lower Merced River Canyon > Yosemite Valley > Yosemite National Park > California",https://www.mountainproject.com/route/106110331/english-breakfast-crack,3.6,-1,Trad,"5.10c PG13",2,200,37.6893,-119.7334
Markery,"Au. Five and Dime Cliff > Lower Merced River Canyon > Yosemite Valley > Yosemite National Park > California",https://www.mountainproject.com/route/113938303/markery,3.1,-1,Sport,5.10b,1,75,37.72288,-119.69922
Mescalito,"3. Southeast Face > B. El Capitan > Valley North Side > Yosemite Valley > Yosemite National Park > California",https://www.mountainproject.com/route/105996954/mescalito,3.9,-1,"Trad, Aid","5.9+ A3",26,2800,37.72954,-119.63438
"Left Water Crack","West Face > Lembert Dome > Tuolumne Meadows > Yosemite National Park > California",https://www.mountainproject.com/route/105931711/left-water-crack,2.8,-1,Trad,"5.7 R",2,200,37.87812,-119.35278
Chingando,"Reed's Pinnacle > At. Reed's Pinnacle Area > Lower Merced River Canyon > Yosemite Valley > Yosemite National Park > California",https://www.mountainproject.com/route/105865415/chingando,3.6,-1,Trad,5.10a,1,115,37.72439,-119.70063
"Snatch Power","Af. Finger Lickin' Area > Lower Merced River Canyon > Yosemite Valley > Yosemite National Park > California",https://www.mountainproject.com/route/106617601/snatch-power,3.2,-1,Trad,5.10c,1,50,37.69834,-119.72378
"Finger Lickin'","Af. Finger Lickin' Area > Lower Merced River Canyon > Yosemite Valley > Yosemite National Park > California",https://www.mountainproject.com/route/106578519/finger-lickin,3.9,-1,Trad,5.10d,1,80,37.69834,-119.72378
Knobulator,"West Face > East Cottage Dome (aka Erratic Dome) > Cottage Domes > DAFF Area > Tuolumne Meadows > Yosemite National Park > California",https://www.mountainproject.com/route/105866006/knobulator,3.0,-1,"Trad, Alpine",5.10c,1,60,37.8846,-119.40825
"Jaw Bone","Af. Finger Lickin' Area > Lower Merced River Canyon > Yosemite Valley > Yosemite National Park > California",https://www.mountainproject.com/route/106617611/jaw-bone,3.2,-1,Trad,5.10a,1,50,37.69834,-119.72378
"The Dawn Wall","3. Southeast Face > B. El Capitan > Valley North Side > Yosemite Valley > Yosemite National Park > California",https://www.mountainproject.com/route/109951912/the-dawn-wall,3.5,-1,Trad,5.14c,32,2500,37.72954,-119.63438
"The Grack, Marginal","3. The Grack Area > I. Glacier Point Apron > Valley South Side > Yosemite Valley > Yosemite National Park > California",https://www.mountainproject.com/route/106026270/the-grack-marginal,3.4,-1,Trad,"5.9 R",4,300,37.72993,-119.56355
"End of The Line","North Buttress Base Routes > 7. Lower Cathedral Area > P. Cathedral Area > Valley South Side > Yosemite Valley > Yosemite National Park > California",https://www.mountainproject.com/route/106436217/end-of-the-line,3.0,-1,Trad,5.10c,1,120,37.71997,-119.64514
"Romulan Warbird","Fifi Buttress > Q. Leaning Tower Area > Valley South Side > Yosemite Valley > Yosemite National Park > California",https://www.mountainproject.com/route/108513618/romulan-warbird,3.9,-1,Trad,5.12c,9,1000,37.71073,-119.65013
"Unnamed but Beautiful","North Buttress Base Routes > 7. Lower Cathedral Area > P. Cathedral Area > Valley South Side > Yosemite Valley > Yosemite National Park > California",https://www.mountainproject.com/route/106436232/unnamed-but-beautiful,2.9,-1,Trad,5.10c,1,90,37.71997,-119.64514
Chouinard-Herbert,"M. Sentinel Rock > Valley South Side > Yosemite Valley > Yosemite National Park > California",https://www.mountainproject.com/route/106233765/chouinard-herbert,3.2,-1,Trad,5.11c,15,1400,37.72958,-119.59381
Hotline,"Elephant Rock > Bc. Elephant Rock Area > Lower Merced River Canyon > Yosemite Valley > Yosemite National Park > California",https://www.mountainproject.com/route/105867136/hotline,3.8,-1,Trad,5.12b,7,,37.71483,-119.71477
"Horseshoes and Handgrenades","Puppy Dome > Tuolumne Meadows > Yosemite National Park > California",https://www.mountainproject.com/route/106491857/horseshoes-and-handgrenades,3.8,-1,Trad,5.12a,1,50,37.87456,-119.34524
Isostasy,"Dozier Dome > Tuolumne Meadows > Yosemite National Park > California",https://www.mountainproject.com/route/106556570/isostasy,2.9,-1,Trad,"5.8 PG13",4,470,37.84942,-119.43165
"Black Angel","Stately Pleasure Dome > Tuolumne Meadows > Yosemite National Park > California",https://www.mountainproject.com/route/106259577/black-angel,3.6,-1,"Trad, Alpine",5.11a,1,65,37.83546,-119.4577
"Jericho Wall Free","1. Jericho Wall > I. Glacier Point Apron > Valley South Side > Yosemite Valley > Yosemite National Park > California",https://www.mountainproject.com/route/115686304/jericho-wall-free,3.6,-1,Trad,5.12a,8,1100,37.72519,-119.56381
"Crimson Cringe","Cascade Falls - Left > An. Cascade Area > Lower Merced River Canyon > Yosemite Valley > Yosemite National Park > California",https://www.mountainproject.com/route/106351823/crimson-cringe,4.0,-1,Trad,5.12b,1,160,37.72652,-119.71267
Knobnoxious,"West Face > East Cottage Dome (aka Erratic Dome) > Cottage Domes > DAFF Area > Tuolumne Meadows > Yosemite National Park > California",https://www.mountainproject.com/route/105991106/knobnoxious,3.3,-1,"Sport, Alpine","5.10c/d PG13",1,95,37.8846,-119.40825
"Cowboy Marmot","Marmot Dome > Tuolumne Meadows > Yosemite National Park > California",https://www.mountainproject.com/route/114611772/cowboy-marmot,3.1,-1,Trad,5.8,5,500,37.87418,-119.39766
"Twilight Zone","The Cookie Cliff > Aj. Cookie Area > Lower Merced River Canyon > Yosemite Valley > Yosemite National Park > California",https://www.mountainproject.com/route/106705016/twilight-zone,3.7,-1,Trad,5.10+,1,100,37.71772,-119.71881
"Lost Arrow Spire Direct","Lost Arrow Spire > E. Yosemite Falls Area > Valley North Side > Yosemite Valley > Yosemite National Park > California",https://www.mountainproject.com/route/107313025/lost-arrow-spire-direct,3.8,-1,"Trad, Aid","5.8 C2",16,1400,37.75604,-119.5941
"Super Chicken","West Face, Left > Medlicott Dome > Tuolumne Meadows > Yosemite National Park > California",https://www.mountainproject.com/route/106007588/super-chicken,3.2,-1,Trad,5.9,2,200,37.86017,-119.42856
"The Enema","The Cookie Cliff > Aj. Cookie Area > Lower Merced River Canyon > Yosemite Valley > Yosemite National Park > California",https://www.mountainproject.com/route/106026182/the-enema,3.3,-1,Trad,5.11b,1,100,37.71772,-119.71881
"Scarface (Free)","F. Liberty Cap > Valley South Side > Yosemite Valley > Yosemite National Park > California",https://www.mountainproject.com/route/108410471/scarface-free,3.9,-1,Trad,5.12,12,1500,37.7275,-119.53364
Supplication,"Ad. Arch Rock > Lower Merced River Canyon > Yosemite Valley > Yosemite National Park > California",https://www.mountainproject.com/route/106677976/supplication,3.4,-1,Trad,5.10c,1,100,37.6893,-119.7334
Afterburner,"Upper Tier > K.  Public Sanitation Wall > Valley South Side > Yosemite Valley > Yosemite National Park > California",https://www.mountainproject.com/route/106265270/afterburner,3.6,-1,Sport,5.11c,1,80,37.73908,-119.58843
"Galen's Crack","Galen's Crack > Tuolumne Meadows > Yosemite National Park > California",https://www.mountainproject.com/route/107676048/galens-crack,3.1,-1,"Trad, TR",5.10c,1,45,37.86297,-119.43375
Deimos,"Phobos/Deimos Cliff > Tuolumne Meadows > Yosemite National Park > California",https://www.mountainproject.com/route/106876106/deimos,3.2,-1,Trad,5.9,3,250,37.84976,-119.44817
"Blind Faith","Ba. The Rostrum > Lower Merced River Canyon > Yosemite Valley > Yosemite National Park > California",https://www.mountainproject.com/route/107290449/blind-faith,3.9,-1,Trad,5.11+,5,400,37.71848,-119.70799
"Hayley Anna","Aa. Parkline Slab > Lower Merced River Canyon > Yosemite Valley > Yosemite National Park > California",https://www.mountainproject.com/route/106685529/hayley-anna,3.4,-1,Trad,5.8,1,,37.67875,-119.74886
"Book of Job","5. Higher Cathedral Rock > P. Cathedral Area > Valley South Side > Yosemite Valley > Yosemite National Park > California",https://www.mountainproject.com/route/106955045/book-of-job,3.7,-1,Trad,5.10,6,700,37.71439,-119.63469
"Shit Hooks","Low Profile Dome > Tuolumne Meadows > Yosemite National Park > California",https://www.mountainproject.com/route/105984368/shit-hooks,3.0,-1,Trad,5.10b,1,150,37.85617,-119.44067
"The Silent Line","5. Ribbon Falls Amphitheater > A. Ribbon Falls Area > Valley North Side > Yosemite Valley > Yosemite National Park > California",https://www.mountainproject.com/route/106770458/the-silent-line,3.4,-1,"Trad, Aid","5.10 C1",8,1000,37.73456,-119.64807
"Pinky Paralysis","Af. Finger Lickin' Area > Lower Merced River Canyon > Yosemite Valley > Yosemite National Park > California",https://www.mountainproject.com/route/106617631/pinky-paralysis,3.7,-1,Trad,5.11c,2,105,37.69834,-119.72378
"Direct North Buttress (DNB)","6. Middle Cathedral Rock > P. Cathedral Area > Valley South Side > Yosemite Valley > Yosemite National Park > California",https://www.mountainproject.com/route/105874557/direct-north-buttress-dnb,3.4,-1,Trad,5.10b,17,1700,37.7165,-119.6363
"By Hook or By Crook","Harlequin Dome > Tenaya Lake Picnic Area > Tuolumne Meadows > Yosemite National Park > California",https://www.mountainproject.com/route/105863000/by-hook-or-by-crook,3.6,-1,Trad,"5.11b PG13",3,,37.84009,-119.45521
"Needle & Spoon","Pywiack Dome > Tuolumne Meadows > Yosemite National Park > California",https://www.mountainproject.com/route/105866062/needle-spoon,3.1,-1,Trad,"5.10a PG13",4,,37.8453,-119.444
Tips,"Ao. This and That Cliff > Lower Merced River Canyon > Yosemite Valley > Yosemite National Park > California",https://www.mountainproject.com/route/105988033/tips,3.9,-1,"Trad, Aid","5.11c/d A0",1,85,37.72521,-119.7068
"Skull Queen","I. Washington Column > Valley North Side > Yosemite Valley > Yosemite National Park > California",https://www.mountainproject.com/route/105863412/skull-queen,3.1,-1,"Trad, Aid","5.8 C2",12,1200,37.74778,-119.559
"My Favorite Things","West Face > A. Clouds Rest > Valley South Side > Yosemite Valley > Yosemite National Park > California",https://www.mountainproject.com/route/106673057/my-favorite-things,3.5,-1,Trad,5.10a,15,2700,37.77432,-119.49888
Hawleywood,"Au. Five and Dime Cliff > Lower Merced River Canyon > Yosemite Valley > Yosemite National Park > California",https://www.mountainproject.com/route/116217712/hawleywood,3.4,-1,Sport,5.9+,1,75,37.72288,-119.69922
Anticipation,"Ad. Arch Rock > Lower Merced River Canyon > Yosemite Valley > Yosemite National Park > California",https://www.mountainproject.com/route/106026163/anticipation,3.8,-1,Trad,5.11b,2,250,37.6893,-119.7334
"Penguin Cafe","Murphy Creek > Murphy Creek Area > Tuolumne Meadows > Yosemite National Park > California",https://www.mountainproject.com/route/107275370/penguin-cafe,3.4,-1,Trad,5.11a,1,80,37.85203,-119.46983
Goldfinger,"Phobos/Deimos Cliff > Tuolumne Meadows > Yosemite National Park > California",https://www.mountainproject.com/route/106233558/goldfinger,3.9,-1,Trad,5.12a,1,160,37.84976,-119.44817
"Muir Wall","2. Southwest Face > B. El Capitan > Valley North Side > Yosemite Valley > Yosemite National Park > California",https://www.mountainproject.com/route/105924815/muir-wall,3.8,-1,"Trad, Aid","5.10 C3-",33,2900,37.73051,-119.63828
"Mark of Art","The Slack to West Buttress > Southwest Base > 1. Base Routes > B. El Capitan > Valley North Side > Yosemite Valley > Yosemite National Park > California",https://www.mountainproject.com/route/106088058/mark-of-art,3.6,-1,Trad,5.11a,1,150,37.73009,-119.63786
"The Crucifix","5. Higher Cathedral Rock > P. Cathedral Area > Valley South Side > Yosemite Valley > Yosemite National Park > California",https://www.mountainproject.com/route/106140318/the-crucifix,3.8,-1,Trad,5.12b,5,700,37.71439,-119.63469
"Green Dragon","6. GPA - Right Side > I. Glacier Point Apron > Valley South Side > Yosemite Valley > Yosemite National Park > California",https://www.mountainproject.com/route/110916477/green-dragon,3.5,-1,Trad,"5.11b R",1,160,37.7337,-119.56956
Bircheff-Williams,"6. Middle Cathedral Rock > P. Cathedral Area > Valley South Side > Yosemite Valley > Yosemite National Park > California",https://www.mountainproject.com/route/105870694/bircheff-williams,3.5,-1,Trad,5.11d,5,500,37.7165,-119.6363
Scorpion,"West Face, Left > Medlicott Dome > Tuolumne Meadows > Yosemite National Park > California",https://www.mountainproject.com/route/106265278/scorpion,3.7,-1,Trad,5.11+,3,300,37.86017,-119.42856
"Freestone (Geek Towers, Left)","Yosemite Falls Wall > E. Yosemite Falls Area > Valley North Side > Yosemite Valley > Yosemite National Park > California",https://www.mountainproject.com/route/111733999/freestone-geek-towers-left,3.9,-1,Trad,5.11c,8,800,37.75604,-119.59553
"Wayward Son","O. Lost Brother > Valley South Side > Yosemite Valley > Yosemite National Park > California",https://www.mountainproject.com/route/117692102/wayward-son,3.8,-1,Trad,5.12c,13,1200,37.71775,-119.60944
"Border Country","6. Middle Cathedral Rock > P. Cathedral Area > Valley South Side > Yosemite Valley > Yosemite National Park > California",https://www.mountainproject.com/route/106661496/border-country,3.7,-1,Trad,"5.12c R",12,1800,37.7165,-119.6363
"Mr. Pinkeyes","L.  The Chapel Wall > Valley South Side > Yosemite Valley > Yosemite National Park > California",https://www.mountainproject.com/route/111857067/mr-pinkeyes,3.4,-1,Sport,5.11c,1,70,37.738,-119.59215
Knobvious,"West Face > East Cottage Dome (aka Erratic Dome) > Cottage Domes > DAFF Area > Tuolumne Meadows > Yosemite National Park > California",https://www.mountainproject.com/route/105866000/knobvious,3.3,-1,"Trad, Alpine","5.10d PG13",1,,37.8846,-119.40825
"Tales of Power","Ak. Wildcat Falls & Above the Cookie > Lower Merced River Canyon > Yosemite Valley > Yosemite National Park > California",https://www.mountainproject.com/route/106240365/tales-of-power,3.9,-1,Trad,5.12,1,110,37.7202,-119.71946
"Creature from the Black Lagoon","Olmsted Canyon Left > Olmsted Area > Tuolumne Meadows > Yosemite National Park > California",https://www.mountainproject.com/route/106672951/creature-from-the-black-lagoon,3.6,-1,Trad,5.10c,1,50,37.81356,-119.49016
"Electric Africa","Pywiack Dome > Tuolumne Meadows > Yosemite National Park > California",https://www.mountainproject.com/route/106346793/electric-africa,3.9,-1,"Trad, TR","5.12c R",1,80,37.8453,-119.444
"Magical Mystery Tour","West Face > Fairview Dome > Tuolumne Meadows > Yosemite National Park > California",https://www.mountainproject.com/route/106509913/magical-mystery-tour,3.5,-1,"Trad, Sport","5.8 R",3,500,37.87012,-119.40627
"Rocky Horror Show","Am. Pat and Jack Pinnacle > Lower Merced River Canyon > Yosemite Valley > Yosemite National Park > California",https://www.mountainproject.com/route/111338771/rocky-horror-show,3.8,-1,Trad,5.12-,1,150,37.72373,-119.71362
Valinor,"West Face > Mariuolumne Dome > Tuolumne Meadows > Yosemite National Park > California",https://www.mountainproject.com/route/117552942/valinor,3.5,-1,Trad,5.10d,4,600,37.8623,-119.42265
"Beggar's Buttress","Mecca > 7. Lower Cathedral Area > P. Cathedral Area > Valley South Side > Yosemite Valley > Yosemite National Park > California",https://www.mountainproject.com/route/106487486/beggars-buttress,3.0,-1,Trad,5.11c,9,700,37.71932,-119.64339
Ciebola,"West Face, Right > Medlicott Dome > Tuolumne Meadows > Yosemite National Park > California",https://www.mountainproject.com/route/106498837/ciebola,3.6,-1,Trad,"5.10b PG13",2,220,37.85505,-119.42899
Handbook,"North Whizz Dome > Whizz Domes > Tuolumne Meadows > Yosemite National Park > California",https://www.mountainproject.com/route/105990868/handbook,3.6,-1,Trad,5.11a,2,240,37.87216,-119.4402
"Golden Gate","2. Southwest Face > B. El Capitan > Valley North Side > Yosemite Valley > Yosemite National Park > California",https://www.mountainproject.com/route/112356641/golden-gate,4.0,-1,Trad,5.13a,36,3000,37.73051,-119.63828
"Mental Block","N. Sentinel Creek Area > Valley South Side > Yosemite Valley > Yosemite National Park > California",https://www.mountainproject.com/route/106066243/mental-block,3.6,-1,Trad,5.10c,5,400,37.72396,-119.60637
[Redacted],"G. Church Bowl > Valley North Side > Yosemite Valley > Yosemite National Park > California",https://www.mountainproject.com/route/106687757/redacted,3.1,-1,Sport,5.11a,1,80,37.74908,-119.58015
"Grand Central","North Buttress > Cathedral Peak > Cathedral Range > Tuolumne Meadows > Yosemite National Park > California",https://www.mountainproject.com/route/111087618/grand-central,3.3,-1,"Trad, Alpine","5.10a PG13",6,1000,37.86252,-119.39973
"Hardly Pinnacle","Little John and La Cosita > Southwest Base > 1. Base Routes > B. El Capitan > Valley North Side > Yosemite Valley > Yosemite National Park > California",https://www.mountainproject.com/route/106651512/hardly-pinnacle,3.6,-1,Trad,5.10d,1,80,37.72953,-119.63752
"Gates of Delirium","5. Ribbon Falls Amphitheater > A. Ribbon Falls Area > Valley North Side > Yosemite Valley > Yosemite National Park > California",https://www.mountainproject.com/route/108448694/gates-of-delirium,3.8,-1,Trad,5.12-,10,1000,37.73456,-119.64807
"The Phoenix","Cascade Falls - Upper > An. Cascade Area > Lower Merced River Canyon > Yosemite Valley > Yosemite National Park > California",https://www.mountainproject.com/route/105875268/the-phoenix,3.9,-1,Trad,5.13a,1,110,37.72669,-119.7132
"Heart of Stone","West Face > Fairview Dome > Tuolumne Meadows > Yosemite National Park > California",https://www.mountainproject.com/route/107777813/heart-of-stone,4.0,-1,Trad,"5.12a R",10,,37.87012,-119.40627
Kauk-kulator,"Ba. The Rostrum > Lower Merced River Canyon > Yosemite Valley > Yosemite National Park > California",https://www.mountainproject.com/route/107747539/kauk-kulator,3.9,-1,Trad,5.11c,1,82,37.71848,-119.70799
"Killa Beez","L.  The Chapel Wall > Valley South Side > Yosemite Valley > Yosemite National Park > California",https://www.mountainproject.com/route/117993526/killa-beez,3.7,-1,Trad,5.11d,4,320,37.738,-119.59215
"Arches Terrace Direct","Eastern Royal Arches > Royal Arches > H. Royal Arches Area > Valley North Side > Yosemite Valley > Yosemite National Park > California",https://www.mountainproject.com/route/106760957/arches-terrace-direct,3.2,-1,Trad,5.11-,6,700,37.74702,-119.56893
RosaRosa,"Au. Five and Dime Cliff > Lower Merced River Canyon > Yosemite Valley > Yosemite National Park > California",https://www.mountainproject.com/route/118945169/rosarosa,3.6,-1,Sport,5.11a,1,90,37.72288,-119.69922
"Vanishing Point","N. Sentinel Creek Area > Valley South Side > Yosemite Valley > Yosemite National Park > California",https://www.mountainproject.com/route/106080054/vanishing-point,3.3,-1,Trad,5.10d,1,,37.72396,-119.60637
"Cosmic Debris","L.  The Chapel Wall > Valley South Side > Yosemite Valley > Yosemite National Park > California",https://www.mountainproject.com/route/106416910/cosmic-debris,4.0,-1,Trad,5.13b,1,50,37.738,-119.59215
"Beyond Lunacy","Reed's Pinnacle > At. Reed's Pinnacle Area > Lower Merced River Canyon > Yosemite Valley > Yosemite National Park > California",https://www.mountainproject.com/route/108513504/beyond-lunacy,3.2,-1,Trad,5.11c,7,900,37.72439,-119.70063
"Unknown and Super Fun!","Upper Tier > K.  Public Sanitation Wall > Valley South Side > Yosemite Valley > Yosemite National Park > California",https://www.mountainproject.com/route/110263374/unknown-and-super-fun,3.7,-1,Sport,5.11c,1,105,37.73908,-119.58843
"Cat's Squirrel","Am. Pat and Jack Pinnacle > Lower Merced River Canyon > Yosemite Valley > Yosemite National Park > California",https://www.mountainproject.com/route/110085991/cats-squirrel,3.5,-1,Trad,5.12a,1,75,37.72373,-119.71362
Stonequest,"Aa. Parkline Slab > Lower Merced River Canyon > Yosemite Valley > Yosemite National Park > California",https://www.mountainproject.com/route/106088271/stonequest,3.2,-1,Trad,"5.8+ R",4,500,37.67875,-119.74886
"Demon's Delight","1. Schultz's Ridge > C. El Cap Picnic Area (Eagle Creek) > Valley North Side > Yosemite Valley > Yosemite National Park > California",https://www.mountainproject.com/route/105862904/demons-delight,3.6,-1,Trad,"5.11a PG13",4,,37.72843,-119.62458
"Tuolumne Alpine Triple Crown","Mt. Conness > Glen Aulin Area > Tuolumne Meadows > Yosemite National Park > California",https://www.mountainproject.com/route/119131000/tuolumne-alpine-triple-crown,3.8,-1,"Trad, Alpine",5.6,1,,37.96688,-119.32128
"South Face","N. Mount Watkins > Valley North Side > Yosemite Valley > Yosemite National Park > California",https://www.mountainproject.com/route/110179339/south-face,3.8,-1,"Trad, Aid","5.11- C2+ PG13",18,2200,37.78289,-119.51727
"King for a Day","Mecca > 7. Lower Cathedral Area > P. Cathedral Area > Valley South Side > Yosemite Valley > Yosemite National Park > California",https://www.mountainproject.com/route/107277077/king-for-a-day,3.8,-1,Sport,5.12a,1,150,37.71932,-119.64339
"El Condor","West Face > DAFF Dome > DAFF Area > Tuolumne Meadows > Yosemite National Park > California",https://www.mountainproject.com/route/109355908/el-condor,3.2,-1,Trad,"5.7 R",3,400,37.8795,-119.41345
"Errett Out","Dozier Dome > Tuolumne Meadows > Yosemite National Park > California",https://www.mountainproject.com/route/106042438/errett-out,2.8,-1,Sport,"5.7 PG13",3,500,37.84942,-119.43165
"More Mental than Mantel","Am. Pat and Jack Pinnacle > Lower Merced River Canyon > Yosemite Valley > Yosemite National Park > California",https://www.mountainproject.com/route/117921253/more-mental-than-mantel,2.9,-1,Trad,5.10-,2,130,37.72373,-119.71362
Bachar-Yerian,"West Face, Right > Medlicott Dome > Tuolumne Meadows > Yosemite National Park > California",https://www.mountainproject.com/route/106244878/bachar-yerian,4.0,-1,Trad,"5.11c X",4,400,37.85505,-119.42899
"Mystery Route (Konvicts do Koalas)","West Face > East Cottage Dome (aka Erratic Dome) > Cottage Domes > DAFF Area > Tuolumne Meadows > Yosemite National Park > California",https://www.mountainproject.com/route/108752567/mystery-route-konvicts-do-koalas,3.5,-1,"Sport, Alpine",5.10+,1,60,37.8846,-119.40825
Stemulant,"Drug Dome > Tuolumne Meadows > Yosemite National Park > California",https://www.mountainproject.com/route/107791468/stemulant,2.9,-1,Trad,5.10a,1,80,37.86461,-119.42215
"Potter in Wonderland","Stately Pleasure Dome > Tuolumne Meadows > Yosemite National Park > California",https://www.mountainproject.com/route/121327285/potter-in-wonderland,3.9,-1,"Sport, Alpine",5.10c,1,180,37.83546,-119.4577
"Orange Man","Low Profile Dome > Tuolumne Meadows > Yosemite National Park > California",https://www.mountainproject.com/route/106476191/orange-man,3.0,-1,Trad,5.10c,1,190,37.85617,-119.44067
Giblit,"Mecca > 7. Lower Cathedral Area > P. Cathedral Area > Valley South Side > Yosemite Valley > Yosemite National Park > California",https://www.mountainproject.com/route/107266908/giblit,3.0,-1,Sport,5.10c,1,70,37.71932,-119.64339
"Cheetos and Everclear","Dozier Dome > Tuolumne Meadows > Yosemite National Park > California",https://www.mountainproject.com/route/106849248/cheetos-and-everclear,2.9,-1,Sport,5.10a,1,180,37.84942,-119.43165
Felsic,"Dozier Dome > Tuolumne Meadows > Yosemite National Park > California",https://www.mountainproject.com/route/107764132/felsic,3.1,-1,Sport,5.9,1,160,37.84942,-119.43165
"East Buttress","Gunsight > 7. Lower Cathedral Area > P. Cathedral Area > Valley South Side > Yosemite Valley > Yosemite National Park > California",https://www.mountainproject.com/route/105916586/east-buttress,3.0,-1,Trad,5.10+,12,1400,37.71666,-119.64348
"More Burly than Girly","Fifi Buttress > Q. Leaning Tower Area > Valley South Side > Yosemite Valley > Yosemite National Park > California",https://www.mountainproject.com/route/120488651/more-burly-than-girly,4.0,-1,Sport,5.12a,1,110,37.71073,-119.65013
"Unknown but Splitter","Upper Tier > K.  Public Sanitation Wall > Valley South Side > Yosemite Valley > Yosemite National Park > California",https://www.mountainproject.com/route/110263406/unknown-but-splitter,3.7,-1,Sport,5.11c,1,70,37.73908,-119.58843
Roseanne,"West Face > Fairview Dome > Tuolumne Meadows > Yosemite National Park > California",https://www.mountainproject.com/route/106025380/roseanne,3.6,-1,Trad,"5.9 R",4,600,37.87012,-119.40627
Sub-Mission,"North Buttress Base Routes > 7. Lower Cathedral Area > P. Cathedral Area > Valley South Side > Yosemite Valley > Yosemite National Park > California",https://www.mountainproject.com/route/109562103/sub-mission,3.4,-1,Trad,5.10d,1,170,37.71997,-119.64514
"The Final Frontier","Fifi Buttress > Q. Leaning Tower Area > Valley South Side > Yosemite Valley > Yosemite National Park > California",https://www.mountainproject.com/route/109077768/the-final-frontier,4.0,-1,Trad,5.13b,9,,37.71073,-119.65013
Desperado,"Am. Pat and Jack Pinnacle > Lower Merced River Canyon > Yosemite Valley > Yosemite National Park > California",https://www.mountainproject.com/route/109610552/desperado,3.5,-1,Sport,5.11d,1,90,37.72373,-119.71362
Cramming,"Ao. This and That Cliff > Lower Merced River Canyon > Yosemite Valley > Yosemite National Park > California",https://www.mountainproject.com/route/106026195/cramming,3.6,-1,Trad,5.10d,1,70,37.72521,-119.7068
"Pretty in Pinkpoint, P1","West Face, Right > Medlicott Dome > Tuolumne Meadows > Yosemite National Park > California",https://www.mountainproject.com/route/106225693/pretty-in-pinkpoint-p1,3.1,-1,Sport,5.10a,1,80,37.85505,-119.42899
"Wailing Wall","West Face, Left > Medlicott Dome > Tuolumne Meadows > Yosemite National Park > California",https://www.mountainproject.com/route/106265285/wailing-wall,3.8,-1,Trad,5.11d,4,700,37.86017,-119.42856
"Wet Denim Daydream","Leaning Tower > Q. Leaning Tower Area > Valley South Side > Yosemite Valley > Yosemite National Park > California",https://www.mountainproject.com/route/106627547/wet-denim-daydream,3.5,-1,"Trad, Aid","5.7 C3 PG13",10,1000,37.71281,-119.64769
Shipoopi!,"West Face, Right > Medlicott Dome > Tuolumne Meadows > Yosemite National Park > California",https://www.mountainproject.com/route/108253940/shipoopi,3.9,-1,Sport,"5.12a PG13",4,200,37.85505,-119.42899
"Henley Quits","5. Camp 4 Wall > D. Camp 4 Area > Valley North Side > Yosemite Valley > Yosemite National Park > California",https://www.mountainproject.com/route/105945935/henley-quits,3.3,-1,Trad,5.10,1,150,37.74268,-119.60709
"Tucker's Proud Rock Climb","Upper Tier > K.  Public Sanitation Wall > Valley South Side > Yosemite Valley > Yosemite National Park > California",https://www.mountainproject.com/route/106265273/tuckers-proud-rock-climb,3.6,-1,Sport,"5.12b PG13",1,80,37.73908,-119.58843
Freewheelin',"6. Middle Cathedral Rock > P. Cathedral Area > Valley South Side > Yosemite Valley > Yosemite National Park > California",https://www.mountainproject.com/route/108353787/freewheelin,3.9,-1,Trad,"5.10b R",5,600,37.7165,-119.6363
Empire,"Mecca > 7. Lower Cathedral Area > P. Cathedral Area > Valley South Side > Yosemite Valley > Yosemite National Park > California",https://www.mountainproject.com/route/117655314/empire,4.0,-1,Sport,5.13a,1,80,37.71932,-119.64339
"Fun Terminal","Killer Pillar > Bc. Elephant Rock Area > Lower Merced River Canyon > Yosemite Valley > Yosemite National Park > California",https://www.mountainproject.com/route/106268760/fun-terminal,4.0,-1,Sport,5.12a,1,75,37.71483,-119.71477
"Blackout (direct start)","South Whizz Dome > Whizz Domes > Tuolumne Meadows > Yosemite National Park > California",https://www.mountainproject.com/route/105995288/blackout-direct-start,4.0,-1,"Trad, Aid","5.11b A0 X",1,118,37.86966,-119.43991
"Shadow Warriors","South Whizz Dome > Whizz Domes > Tuolumne Meadows > Yosemite National Park > California",https://www.mountainproject.com/route/105991031/shadow-warriors,4.0,-1,Sport,5.12c,1,80,37.86966,-119.43991
"Via Aqua","Upper Falls Trail and Columbia Point > E. Yosemite Falls Area > Valley North Side > Yosemite Valley > Yosemite National Park > California",https://www.mountainproject.com/route/117972057/via-aqua,3.1,-1,Trad,5.8,4,500,37.74697,-119.60275
"Table of Contents","Stately Pleasure Dome > Tuolumne Meadows > Yosemite National Park > California",https://www.mountainproject.com/route/105859435/table-of-contents,3.0,-1,"Trad, Alpine","5.10d R",3,400,37.83546,-119.4577
"Entrance Exam","Ad. Arch Rock > Lower Merced River Canyon > Yosemite Valley > Yosemite National Park > California",https://www.mountainproject.com/route/106112719/entrance-exam,3.1,-1,Trad,5.9,3,200,37.6893,-119.7334
"The Thief","The Watchtower > Leaning Tower Base Routes > Q. Leaning Tower Area > Valley South Side > Yosemite Valley > Yosemite National Park > California",https://www.mountainproject.com/route/107355023/the-thief,3.7,-1,Trad,5.10d,2,170,37.71516,-119.64875
"Coup d'Etat","Ac. U.S.G.S. Wall > Lower Merced River Canyon > Yosemite Valley > Yosemite National Park > California",https://www.mountainproject.com/route/106459459/coup-detat,3.7,-1,Sport,5.12a,1,90,37.67951,-119.73547
"Flight Attendant","Bb. The Jungle Gym > Lower Merced River Canyon > Yosemite Valley > Yosemite National Park > California",https://www.mountainproject.com/route/107355118/flight-attendant,3.7,-1,Trad,5.10d,1,100,37.72092,-119.71001
"Sorcerer's Apprentice","West Face > Fairview Dome > Tuolumne Meadows > Yosemite National Park > California",https://www.mountainproject.com/route/106531401/sorcerers-apprentice,3.9,-1,Trad,"5.11a R",7,800,37.87012,-119.40627
"15 Minutes of Fame","West Face, Right > Medlicott Dome > Tuolumne Meadows > Yosemite National Park > California",https://www.mountainproject.com/route/106225707/15-minutes-of-fame,3.1,-1,Sport,5.11a,1,80,37.85505,-119.42899
"Total Way-ist","Upper Tier > K.  Public Sanitation Wall > Valley South Side > Yosemite Valley > Yosemite National Park > California",https://www.mountainproject.com/route/106265267/total-way-ist,2.9,-1,Sport,5.11b,1,80,37.73908,-119.58843
"South Seas","3. Southeast Face > B. El Capitan > Valley North Side > Yosemite Valley > Yosemite National Park > California",https://www.mountainproject.com/route/112196417/south-seas,4.0,-1,"Trad, Aid","5.9 A3+",23,2500,37.72954,-119.63438
"What Would Jeff Do","West Face > Fairview Dome > Tuolumne Meadows > Yosemite National Park > California",https://www.mountainproject.com/route/114523510/what-would-jeff-do,3.6,-1,Trad,5.11b,8,900,37.87012,-119.40627
"Crack of Doom","Elephant Rock > Bc. Elephant Rock Area > Lower Merced River Canyon > Yosemite Valley > Yosemite National Park > California",https://www.mountainproject.com/route/107808764/crack-of-doom,3.9,-1,Trad,5.10a,3,500,37.71483,-119.71477
"Temple of Doom","Upper Tier > K.  Public Sanitation Wall > Valley South Side > Yosemite Valley > Yosemite National Park > California",https://www.mountainproject.com/route/110263093/temple-of-doom,3.6,-1,Sport,5.12b,1,80,37.73908,-119.58843
"Dream Team","Fifi Buttress > Q. Leaning Tower Area > Valley South Side > Yosemite Valley > Yosemite National Park > California",https://www.mountainproject.com/route/119625258/dream-team,3.9,-1,Trad,5.13a,10,1000,37.71073,-119.65013
"Tribal Rite","3. Southeast Face > B. El Capitan > Valley North Side > Yosemite Valley > Yosemite National Park > California",https://www.mountainproject.com/route/112555626/tribal-rite,4.0,-1,"Trad, Aid","5.8 A3+",29,3000,37.72954,-119.63438
"Tenaya's Tears","Western Royal Arches > Royal Arches > H. Royal Arches Area > Valley North Side > Yosemite Valley > Yosemite National Park > California",https://www.mountainproject.com/route/116367121/tenayas-tears,3.4,-1,Trad,"5.10c PG13",7,600,37.74873,-119.57265
"Final Cut","Lower Tier > K.  Public Sanitation Wall > Valley South Side > Yosemite Valley > Yosemite National Park > California",https://www.mountainproject.com/route/111164749/final-cut,4.0,-1,Sport,5.12b,1,100,37.73908,-119.58843
"Father Time","6. Middle Cathedral Rock > P. Cathedral Area > Valley South Side > Yosemite Valley > Yosemite National Park > California",https://www.mountainproject.com/route/109275454/father-time,4.0,-1,Trad,"5.13b PG13",20,2000,37.7165,-119.6363
Otherworld,"Aa. Parkline Slab > Lower Merced River Canyon > Yosemite Valley > Yosemite National Park > California",https://www.mountainproject.com/route/120529451/otherworld,3.8,-1,Sport,5.11d,9,800,37.67875,-119.74886
"Shadow of Doubt","Hammer Dome > DAFF Area > Tuolumne Meadows > Yosemite National Park > California",https://www.mountainproject.com/route/108207550/shadow-of-doubt,3.9,-1,Trad,"5.10c PG13",1,200,37.87999,-119.43805
"Hall of Mirrors","4. Goodrich Pinnacle Area > I. Glacier Point Apron > Valley South Side > Yosemite Valley > Yosemite National Park > California",https://www.mountainproject.com/route/109538712/hall-of-mirrors,4.0,-1,Trad,"5.12c R",16,1300,37.7323,-119.56492
"Cock Tart","Ap. New Diversions > Lower Merced River Canyon > Yosemite Valley > Yosemite National Park > California",https://www.mountainproject.com/route/109613411/cock-tart,3.3,-1,Sport,"5.10c PG13",1,,37.72262,-119.70258
Autobahn,"4. South Face > D. Half Dome > Valley South Side > Yosemite Valley > Yosemite National Park > California",https://www.mountainproject.com/route/105939157/autobahn,4.0,-1,Trad,5.11+,12,1500,37.73964,-119.53518
"Alien Finish","Ba. The Rostrum > Lower Merced River Canyon > Yosemite Valley > Yosemite National Park > California",https://www.mountainproject.com/route/121525375/alien-finish,4.0,-1,Trad,5.12b,1,,37.71848,-119.70799
"Titty Twister","The Wart (aka Lake of the Domes Dome) > Medlicott Dome > Tuolumne Meadows > Yosemite National Park > California",https://www.mountainproject.com/route/114784912/titty-twister,3.8,-1,"Sport, Alpine",5.10c,1,100,37.86026,-119.42626
Homeworld,"Aa. Parkline Slab > Lower Merced River Canyon > Yosemite Valley > Yosemite National Park > California",https://www.mountainproject.com/route/106710269/homeworld,3.4,-1,Trad,5.11a,8,800,37.67875,-119.74886
Sunkist,"2. Southwest Face > B. El Capitan > Valley North Side > Yosemite Valley > Yosemite National Park > California",https://www.mountainproject.com/route/120725764/sunkist,3.9,-1,"Trad, Aid","5.8 A3+",30,2900,37.73051,-119.63828
"Teabag Wisdom","N. Mount Watkins > Valley North Side > Yosemite Valley > Yosemite National Park > California",https://www.mountainproject.com/route/114797819/teabag-wisdom,3.9,-1,Trad,5.11a,9,1350,37.78289,-119.51727
"You Asked For It","West Face, Right > Medlicott Dome > Tuolumne Meadows > Yosemite National Park > California",https://www.mountainproject.com/route/111159586/you-asked-for-it,4.0,-1,Trad,"5.10c X",4,450,37.85505,-119.42899
"Bunnell Boa","C.  Little Yosemite Valley > Valley South Side > Yosemite Valley > Yosemite National Park > California",https://www.mountainproject.com/route/117698246/bunnell-boa,4.0,-1,Trad,5.11a,14,2550,37.73646,-119.47882
"Ho Chi Minh Trail","6. Middle Cathedral Rock > P. Cathedral Area > Valley South Side > Yosemite Valley > Yosemite National Park > California",https://www.mountainproject.com/route/106271974/ho-chi-minh-trail,3.2,-1,Trad,5.10d,19,2000,37.7165,-119.6363
"The Sting","Harlequin Dome > Tenaya Lake Picnic Area > Tuolumne Meadows > Yosemite National Park > California",https://www.mountainproject.com/route/106064576/the-sting,3.2,-1,Trad,5.10b,5,500,37.84009,-119.45521
"Blond Ike","3. Southwest Face > D. Half Dome > Valley South Side > Yosemite Valley > Yosemite National Park > California",https://www.mountainproject.com/route/106182011/blond-ike,4.0,-1,Trad,"5.11a R",7,900,37.73971,-119.54003
Goldmember,"West Face, Center > Medlicott Dome > Tuolumne Meadows > Yosemite National Park > California",https://www.mountainproject.com/route/106007882/goldmember,3.1,-1,Trad,5.9,1,150,37.85919,-119.42859
Peace,"West Face, Right > Medlicott Dome > Tuolumne Meadows > Yosemite National Park > California",https://www.mountainproject.com/route/113508237/peace,4.0,-1,Sport,5.13d,2,250,37.85505,-119.42899
"Galactic Hitchhiker","4. Goodrich Pinnacle Area > I. Glacier Point Apron > Valley South Side > Yosemite Valley > Yosemite National Park > California",https://www.mountainproject.com/route/106683463/galactic-hitchhiker,3.4,-1,Trad,5.11b,20,4000,37.7323,-119.56492
"The Truth","The Sugar Cookie > Aj. Cookie Area > Lower Merced River Canyon > Yosemite Valley > Yosemite National Park > California",https://www.mountainproject.com/route/114220726/the-truth,4.0,-1,Trad,5.12a,1,100,37.71944,-119.71928
"Big Easy","Upper Tier > K.  Public Sanitation Wall > Valley South Side > Yosemite Valley > Yosemite National Park > California",https://www.mountainproject.com/route/110263245/big-easy,3.7,-1,Sport,5.11d,1,100,37.73908,-119.58843
"Double Dragon","L.  The Chapel Wall > Valley South Side > Yosemite Valley > Yosemite National Park > California",https://www.mountainproject.com/route/111625735/double-dragon,3.6,-1,Trad,5.12d,1,80,37.738,-119.59215
"Controlled Burn","L.  The Chapel Wall > Valley South Side > Yosemite Valley > Yosemite National Park > California",https://www.mountainproject.com/route/106695901/controlled-burn,3.1,-1,Trad,5.11a,1,60,37.738,-119.59215
"America's Cup","The Cookie Cliff > Aj. Cookie Area > Lower Merced River Canyon > Yosemite Valley > Yosemite National Park > California",https://www.mountainproject.com/route/107987515/americas-cup,3.7,-1,Trad,"5.12b PG13",2,200,37.71772,-119.71881
"Far West Country","Stately Pleasure Dome > Tuolumne Meadows > Yosemite National Park > California",https://www.mountainproject.com/route/121336428/far-west-country,3.6,-1,"Trad, Alpine",5.6,1,160,37.83546,-119.4577
"Magic Mushroom","2. Southwest Face > B. El Capitan > Valley North Side > Yosemite Valley > Yosemite National Park > California",https://www.mountainproject.com/route/108716114/magic-mushroom,4.0,-1,"Trad, Aid","5.14a A3",31,2900,37.73051,-119.63828
"Jolly Roger","2. Southwest Face > B. El Capitan > Valley North Side > Yosemite Valley > Yosemite National Park > California",https://www.mountainproject.com/route/120858759/jolly-roger,4.0,-1,"Trad, Aid","5.10+ A4+ R",23,2800,37.73051,-119.63828
Meltdown,"Cascade Falls - Upper > An. Cascade Area > Lower Merced River Canyon > Yosemite Valley > Yosemite National Park > California",https://www.mountainproject.com/route/107161194/meltdown,4.0,-1,Trad,"5.14c PG13",1,60,37.72669,-119.7132
"The Last Crusade","5. Higher Cathedral Rock > P. Cathedral Area > Valley South Side > Yosemite Valley > Yosemite National Park > California",https://www.mountainproject.com/route/119925066/the-last-crusade,3.5,-1,Trad,5.12-,6,600,37.71439,-119.63469
Vendetta,"The Cookie Cliff > Aj. Cookie Area > Lower Merced River Canyon > Yosemite Valley > Yosemite National Park > California",https://www.mountainproject.com/route/106392021/vendetta,3.1,-1,Trad,5.10b,5,350,37.71772,-119.71881
"40 Knobs to Freedom","West Face > DAFF Dome > DAFF Area > Tuolumne Meadows > Yosemite National Park > California",https://www.mountainproject.com/route/120918288/40-knobs-to-freedom,4.0,-1,Trad,"5.10b/c PG13",4,450,37.8795,-119.41345
"Truckin' Drive","West Face > Lembert Dome > Tuolumne Meadows > Yosemite National Park > California",https://www.mountainproject.com/route/105931714/truckin-drive,2.9,-1,Trad,"5.9 R",3,300,37.87812,-119.35278
"Bad Ass Momma","Royal Arches Boulder Cracks > H. Royal Arches Area > Valley North Side > Yosemite Valley > Yosemite National Park > California",https://www.mountainproject.com/route/107095406/bad-ass-momma,3.8,-1,"Trad, TR",5.11d,1,35,37.74499,-119.56484
"Lunar Leap","West Face > Lembert Dome > Tuolumne Meadows > Yosemite National Park > California",https://www.mountainproject.com/route/106141408/lunar-leap,3.4,-1,Trad,5.9+,3,350,37.87812,-119.35278
"Son of Sam","6. GPA - Right Side > I. Glacier Point Apron > Valley South Side > Yosemite Valley > Yosemite National Park > California",https://www.mountainproject.com/route/113898215/son-of-sam,2.9,-1,Trad,5.9+,1,,37.7337,-119.56956
Wildcat,"Wildcat Point > Grand Canyon of the Tuolumne - north side > Grand Canyon of the Tuolumne > Glen Aulin Area > Tuolumne Meadows > Yosemite National Park > California",https://www.mountainproject.com/route/117931453/wildcat,4.0,-1,Trad,5.12+,8,700,37.92776,-119.44276
1096,"Eastern Royal Arches > Royal Arches > H. Royal Arches Area > Valley North Side > Yosemite Valley > Yosemite National Park > California",https://www.mountainproject.com/route/105993699/1096,3.4,-1,Trad,5.10d,1,60,37.74702,-119.56893
"The Nexus AKA The Niels Tietze Memorial Route","Fifi Buttress > Q. Leaning Tower Area > Valley South Side > Yosemite Valley > Yosemite National Park > California",https://www.mountainproject.com/route/120259668/the-nexus-aka-the-niels-tietze-memorial-route,4.0,-1,Trad,5.13-,10,900,37.71073,-119.65013
"Mid-Life Crisis","Eastern Royal Arches > Royal Arches > H. Royal Arches Area > Valley North Side > Yosemite Valley > Yosemite National Park > California",https://www.mountainproject.com/route/107872293/mid-life-crisis,3.6,-1,Trad,5.10b,4,600,37.74702,-119.56893
Sunshine,"Drug Dome > Tuolumne Meadows > Yosemite National Park > California",https://www.mountainproject.com/route/110706789/sunshine,3.9,-1,Trad,"5.10d R",6,600,37.86461,-119.42215
Positivity,"Micro Dome > DAFF Area > Tuolumne Meadows > Yosemite National Park > California",https://www.mountainproject.com/route/120585192/positivity,4.0,-1,Trad,5.13a,1,80,37.87742,-119.41867
Cream,"Ay. Cream > Lower Merced River Canyon > Yosemite Valley > Yosemite National Park > California",https://www.mountainproject.com/route/107633177/cream,3.9,-1,Trad,5.11a,1,150,37.71478,-119.70107
"El Niño","3. Southeast Face > B. El Capitan > Valley North Side > Yosemite Valley > Yosemite National Park > California",https://www.mountainproject.com/route/122243044/el-nino,4.0,-1,Trad,5.13b/c,25,2500,37.72954,-119.63438
"Space Invaders","Royal Arches Boulder Cracks > H. Royal Arches Area > Valley North Side > Yosemite Valley > Yosemite National Park > California",https://www.mountainproject.com/route/106922131/space-invaders,4.0,-1,"Trad, TR",5.12a,1,40,37.74499,-119.56484
"Golden Years","4. Slab Happy Pinnacle > C. El Cap Picnic Area (Eagle Creek) > Valley North Side > Yosemite Valley > Yosemite National Park > California",https://www.mountainproject.com/route/108513574/golden-years,4.0,-1,Trad,5.12c,9,1000,37.73113,-119.62451
"Heart Route (Free)","2. Southwest Face > B. El Capitan > Valley North Side > Yosemite Valley > Yosemite National Park > California",https://www.mountainproject.com/route/110644695/heart-route-free,4.0,-1,"Trad, Boulder","5.13b V10",26,,37.73051,-119.63828
"The Greenleaf p. 1","East Pillar of the Cookie > Aj. Cookie Area > Lower Merced River Canyon > Yosemite Valley > Yosemite National Park > California",https://www.mountainproject.com/route/114275125/the-greenleaf-p-1,4.0,-1,Sport,5.12b,1,100,37.71868,-119.71864
TRON,"Southeast Base > 1. Base Routes > B. El Capitan > Valley North Side > Yosemite Valley > Yosemite National Park > California",https://www.mountainproject.com/route/107049788/tron,4.0,-1,Sport,"5.13b PG13",1,150,37.72855,-119.63636
"North Face","Dog Dome > Lembert Dome > Tuolumne Meadows > Yosemite National Park > California",https://www.mountainproject.com/route/107686082/north-face,3.1,-1,Trad,5.8+,3,300,37.8844,-119.3447
Tourette's,"Dozier Dome > Tuolumne Meadows > Yosemite National Park > California",https://www.mountainproject.com/route/108256698/tourettes,3.0,-1,Trad,5.10b,1,110,37.84942,-119.43165
"The Lighter Side","West Face, Left > Medlicott Dome > Tuolumne Meadows > Yosemite National Park > California",https://www.mountainproject.com/route/106482657/the-lighter-side,4.0,-1,Sport,5.12b,1,90,37.86017,-119.42856
"Westie Face","Leaning Tower > Q. Leaning Tower Area > Valley South Side > Yosemite Valley > Yosemite National Park > California",https://www.mountainproject.com/route/112909493/westie-face,3.8,-1,Trad,"5.13- R",8,1000,37.71281,-119.64769
"Are You Hard Enough?","1. Schultz's Ridge > C. El Cap Picnic Area (Eagle Creek) > Valley North Side > Yosemite Valley > Yosemite National Park > California",https://www.mountainproject.com/route/107095337/are-you-hard-enough,2.9,-1,Sport,5.10d,1,90,37.72843,-119.62458
"Mark of the Beast","1. Schultz's Ridge > C. El Cap Picnic Area (Eagle Creek) > Valley North Side > Yosemite Valley > Yosemite National Park > California",https://www.mountainproject.com/route/110316332/mark-of-the-beast,4.0,-1,Trad,5.13b,6,500,37.72843,-119.62458
Mahtah,"F. Liberty Cap > Valley South Side > Yosemite Valley > Yosemite National Park > California",https://www.mountainproject.com/route/113775020/mahtah,4.0,-1,Trad,5.12+,15,1500,37.7275,-119.53364
Ursula,"Dozier Dome > Tuolumne Meadows > Yosemite National Park > California",https://www.mountainproject.com/route/106498804/ursula,3.6,-1,Trad,"5.10c PG13",3,500,37.84942,-119.43165
"Pacific Ocean Wall","3. Southeast Face > B. El Capitan > Valley North Side > Yosemite Valley > Yosemite National Park > California",https://www.mountainproject.com/route/122154623/pacific-ocean-wall,3.6,-1,"Trad, Aid","5.9+ A3+ R",28,2800,37.72954,-119.63438
"Scorched Earth","3. Southeast Face > B. El Capitan > Valley North Side > Yosemite Valley > Yosemite National Park > California",https://www.mountainproject.com/route/107093819/scorched-earth,4.0,-1,"Trad, Aid","5.8 A4 PG13",15,1800,37.72954,-119.63438
Roulette,"Leaning Tower > Q. Leaning Tower Area > Valley South Side > Yosemite Valley > Yosemite National Park > California",https://www.mountainproject.com/route/118190405/roulette,3.8,-1,"Trad, Aid","5.6 A3+ PG13",8,900,37.71281,-119.64769
Clementine,"Wildcat Point > Grand Canyon of the Tuolumne - north side > Grand Canyon of the Tuolumne > Glen Aulin Area > Tuolumne Meadows > Yosemite National Park > California",https://www.mountainproject.com/route/119422465/clementine,4.0,-1,Trad,5.12b,4,400,37.92776,-119.44276
"Mr. Midwest","2. Southwest Face > B. El Capitan > Valley North Side > Yosemite Valley > Yosemite National Park > California",https://www.mountainproject.com/route/119449092/mr-midwest,4.0,-1,Trad,"5.13 PG13",15,1800,37.73051,-119.63828
"Finger Crack","Finger Crack Boulder > Camp 4 Boulders > * Yosemite Valley Bouldering > Yosemite Valley > Yosemite National Park > California",https://www.mountainproject.com/route/106049459/finger-crack,3.3,-1,"Trad, Boulder","5.10b V1",1,17,37.74247,-119.60547
"Mark of the Shark","Au. Five and Dime Cliff > Lower Merced River Canyon > Yosemite Valley > Yosemite National Park > California",https://www.mountainproject.com/route/122273177/mark-of-the-shark,4.0,-1,Trad,"5.11a PG13",2,95,37.72288,-119.69922
"Cucamonga Honey","West Face > Lembert Dome > Tuolumne Meadows > Yosemite National Park > California",https://www.mountainproject.com/route/105962651/cucamonga-honey,3.4,-1,Trad,"5.10b PG13",2,150,37.87812,-119.35278
"The Xue Way","4. South Face > D. Half Dome > Valley South Side > Yosemite Valley > Yosemite National Park > California",https://www.mountainproject.com/route/120947867/the-xue-way,4.0,-1,"Trad, Aid","5.12a C0",20,2500,37.73964,-119.53518
"Takin' A Ride","Lower Tier > Mount Savage > Southern Yosemite > Yosemite National Park > California",https://www.mountainproject.com/route/120683955/takin-a-ride,4.0,-1,"Sport, TR",5.10a,1,100,37.50945,-119.64918
Disintegration,"West Face > East Cottage Dome (aka Erratic Dome) > Cottage Domes > DAFF Area > Tuolumne Meadows > Yosemite National Park > California",https://www.mountainproject.com/route/105991086/disintegration,3.0,-1,"Sport, Alpine",5.10d,1,50,37.8846,-119.40825
"West Buttress","2. Southwest Face > B. El Capitan > Valley North Side > Yosemite Valley > Yosemite National Park > California",https://www.mountainproject.com/route/121681353/west-buttress,4.0,-1,"Trad, Aid","5.9 A3",21,2100,37.73051,-119.63828
"Serrated Edge","West Face > Mariuolumne Dome > Tuolumne Meadows > Yosemite National Park > California",https://www.mountainproject.com/route/106870723/serrated-edge,3.2,-1,Trad,5.10c,4,500,37.8623,-119.42265
"Fatty Can't Fit","Wawona Dome > Wawona > Southern Yosemite > Yosemite National Park > California",https://www.mountainproject.com/route/114278358/fatty-cant-fit,4.0,-1,Trad,5.10b,3,350,37.55384,-119.61664
"Book of Hate","Elephant's Graveyard > Bc. Elephant Rock Area > Lower Merced River Canyon > Yosemite Valley > Yosemite National Park > California",https://www.mountainproject.com/route/114315261/book-of-hate,4.0,-1,Trad,5.13d,1,150,37.71673,-119.71214
"The Greenleaf p. 2","East Pillar of the Cookie > Aj. Cookie Area > Lower Merced River Canyon > Yosemite Valley > Yosemite National Park > California",https://www.mountainproject.com/route/114275157/the-greenleaf-p-2,4.0,-1,Trad,5.12c,2,60,37.71868,-119.71864
"Random Blessings","4. Slab Happy Pinnacle > C. El Cap Picnic Area (Eagle Creek) > Valley North Side > Yosemite Valley > Yosemite National Park > California",https://www.mountainproject.com/route/110245159/random-blessings,4.0,-1,Trad,"5.10d PG13",8,900,37.73113,-119.62451
"The Silent Freeway","4. Slab Happy Pinnacle > C. El Cap Picnic Area (Eagle Creek) > Valley North Side > Yosemite Valley > Yosemite National Park > California",https://www.mountainproject.com/route/106789141/the-silent-freeway,4.0,-1,Trad,5.10d,1,140,37.73113,-119.62451
"The Cobra","Central Royal Arches > Royal Arches > H. Royal Arches Area > Valley North Side > Yosemite Valley > Yosemite National Park > California",https://www.mountainproject.com/route/121524822/the-cobra,3.3,-1,Trad,"5.11 R",8,,37.74724,-119.57128
"Riding on the Wind","R. The Widow's Tears Area > Valley South Side > Yosemite Valley > Yosemite National Park > California",https://www.mountainproject.com/route/116665216/riding-on-the-wind,3.8,-1,Trad,5.11+,10,1200,37.70879,-119.66567
Resurrection,"Hetch Hetchy Dome > Hetch Hetchy > Yosemite National Park > California",https://www.mountainproject.com/route/119513779/resurrection,4.0,-1,Trad,5.12c,17,1800,37.96477,-119.75489
"Evil Sede","The Sugar Cookie > Aj. Cookie Area > Lower Merced River Canyon > Yosemite Valley > Yosemite National Park > California",https://www.mountainproject.com/route/112795745/evil-sede,3.8,-1,Sport,5.12d,1,80,37.71944,-119.71928
"Top Gun","Stately Pleasure Dome > Tuolumne Meadows > Yosemite National Park > California",https://www.mountainproject.com/route/119481615/top-gun,4.0,-1,"Trad, Alpine",5.13d,1,60,37.83546,-119.4577
"Fun n' Done","Au. Five and Dime Cliff > Lower Merced River Canyon > Yosemite Valley > Yosemite National Park > California",https://www.mountainproject.com/route/122321716/fun-n-done,4.0,-1,Trad,5.10d,1,35,37.72288,-119.69922
"Grenade Launcher","Puppy Dome > Tuolumne Meadows > Yosemite National Park > California",https://www.mountainproject.com/route/106491868/grenade-launcher,3.8,-1,Trad,5.12c,1,50,37.87456,-119.34524
"Three Stone Corner","Au. Five and Dime Cliff > Lower Merced River Canyon > Yosemite Valley > Yosemite National Park > California",https://www.mountainproject.com/route/122324055/three-stone-corner,3.2,-1,Trad,5.8,1,95,37.72288,-119.69922
"Power Point","5. Higher Cathedral Rock > P. Cathedral Area > Valley South Side > Yosemite Valley > Yosemite National Park > California",https://www.mountainproject.com/route/121577216/power-point,4.0,-1,Trad,"5.11+ PG13",5,750,37.71439,-119.63469
Neptune,"3. Southeast Face > B. El Capitan > Valley North Side > Yosemite Valley > Yosemite National Park > California",https://www.mountainproject.com/route/120817875/neptune,4.0,-1,"Trad, Aid","5.10 A4+",22,3000,37.72954,-119.63438
"Devil Waves","Western Royal Arches > Royal Arches > H. Royal Arches Area > Valley North Side > Yosemite Valley > Yosemite National Park > California",https://www.mountainproject.com/route/118692750/devil-waves,4.0,-1,Sport,5.11b,1,120,37.74873,-119.57265
"Squeeze Me","Au. Five and Dime Cliff > Lower Merced River Canyon > Yosemite Valley > Yosemite National Park > California",https://www.mountainproject.com/route/122319970/squeeze-me,3.3,-1,Trad,5.10,2,230,37.72288,-119.69922
"Growing Up","4. South Face > D. Half Dome > Valley South Side > Yosemite Valley > Yosemite National Park > California",https://www.mountainproject.com/route/113149987/growing-up,3.8,-1,"Trad, Aid","5.13a A0",21,2000,37.73964,-119.53518
"Rock Neurotic","Southeast Base > 1. Base Routes > B. El Capitan > Valley North Side > Yosemite Valley > Yosemite National Park > California",https://www.mountainproject.com/route/111207056/rock-neurotic,4.0,-1,Sport,"5.11a R",1,120,37.72855,-119.63636
"The Unchaste","Aa. Parkline Slab > Lower Merced River Canyon > Yosemite Valley > Yosemite National Park > California",https://www.mountainproject.com/route/106678991/the-unchaste,3.4,-1,"Trad, Sport",5.10b,3,400,37.67875,-119.74886
"Quiet Desperation","Stately Pleasure Dome > Tuolumne Meadows > Yosemite National Park > California",https://www.mountainproject.com/route/114652050/quiet-desperation,3.6,-1,"Trad, Alpine","5.9 R",7,600,37.83546,-119.4577
"It takes a Village","Original climb list > Grand Canyon of the Tuolumne > Glen Aulin Area > Tuolumne Meadows > Yosemite National Park > California",https://www.mountainproject.com/route/117867722/it-takes-a-village,4.0,-1,Trad,5.11d,5,500,37.91596,-119.44074
"Open Your Eyes","Reed's Pinnacle > At. Reed's Pinnacle Area > Lower Merced River Canyon > Yosemite Valley > Yosemite National Park > California",https://www.mountainproject.com/route/119894736/open-your-eyes,4.0,-1,Trad,5.11c,1,110,37.72439,-119.70063
"Steppin' Out","Reed's Pinnacle > At. Reed's Pinnacle Area > Lower Merced River Canyon > Yosemite Valley > Yosemite National Park > California",https://www.mountainproject.com/route/106744090/steppin-out,3.5,-1,Trad,5.10d,3,300,37.72439,-119.70063
"Acapulco Gold","Drug Dome > Tuolumne Meadows > Yosemite National Park > California",https://www.mountainproject.com/route/111971976/acapulco-gold,4.0,-1,Trad,"5.12c R",5,600,37.86461,-119.42215
"First Blood","The Sugar Cookie > Aj. Cookie Area > Lower Merced River Canyon > Yosemite Valley > Yosemite National Park > California",https://www.mountainproject.com/route/113969835/first-blood,4.0,-1,Sport,5.13a,1,100,37.71944,-119.71928
"Loco Yokel","West Face, Left > Medlicott Dome > Tuolumne Meadows > Yosemite National Park > California",https://www.mountainproject.com/route/109402090/loco-yokel,3.5,-1,Trad,5.10d,2,230,37.86017,-119.42856
"Owl Roof","The Owl > Ar. The Owl Area > Lower Merced River Canyon > Yosemite Valley > Yosemite National Park > California",https://www.mountainproject.com/route/105877580/owl-roof,4.0,-1,Trad,5.12c,1,,37.7284,-119.70862
"Splitter boulder hand crack","Original climb list > Grand Canyon of the Tuolumne > Glen Aulin Area > Tuolumne Meadows > Yosemite National Park > California",https://www.mountainproject.com/route/117985686/splitter-boulder-hand-crack,4.0,-1,Trad,5.10a,1,80,37.91596,-119.44074
"Mojo Rising","4. Goodrich Pinnacle Area > I. Glacier Point Apron > Valley South Side > Yosemite Valley > Yosemite National Park > California",https://www.mountainproject.com/route/116123565/mojo-rising,4.0,-1,Trad,5.11b,4,410,37.7323,-119.56492
"The Higher Truth","The Sugar Cookie > Aj. Cookie Area > Lower Merced River Canyon > Yosemite Valley > Yosemite National Park > California",https://www.mountainproject.com/route/116067590/the-higher-truth,4.0,-1,Trad,5.12c,1,130,37.71944,-119.71928
"Black Fly","Lower Tier > K.  Public Sanitation Wall > Valley South Side > Yosemite Valley > Yosemite National Park > California",https://www.mountainproject.com/route/118762097/black-fly,4.0,-1,Sport,5.13,1,70,37.73908,-119.58843
"Pretty in Pinkpoint, P2","West Face, Right > Medlicott Dome > Tuolumne Meadows > Yosemite National Park > California",https://www.mountainproject.com/route/108253914/pretty-in-pinkpoint-p2,4.0,-1,Sport,5.12c,1,50,37.85505,-119.42899
"Comfortably Numb","West Face > East Cottage Dome (aka Erratic Dome) > Cottage Domes > DAFF Area > Tuolumne Meadows > Yosemite National Park > California",https://www.mountainproject.com/route/105865990/comfortably-numb,3.0,-1,"Trad, Alpine",5.10c,1,80,37.8846,-119.40825
"Golden Age","South Whizz Dome > Whizz Domes > Tuolumne Meadows > Yosemite National Park > California",https://www.mountainproject.com/route/123014052/golden-age,4.0,-1,"Sport, Aid","5.11c A0",1,115,37.86966,-119.43991
"Spire it up (first 2 pitches)","3. Higher Cathedral Spire > P. Cathedral Area > Valley South Side > Yosemite Valley > Yosemite National Park > California",https://www.mountainproject.com/route/111967676/spire-it-up-first-2-pitches,4.0,-1,Trad,5.13-,2,200,37.71404,-119.63226
"Pink Dream","Elephant Rock > Bc. Elephant Rock Area > Lower Merced River Canyon > Yosemite Valley > Yosemite National Park > California",https://www.mountainproject.com/route/106263216/pink-dream,3.5,-1,Trad,5.10-,2,300,37.71483,-119.71477
"Body and Soul","South Whizz Dome > Whizz Domes > Tuolumne Meadows > Yosemite National Park > California",https://www.mountainproject.com/route/106603004/body-and-soul,4.0,-1,Trad,"5.12b R",1,,37.86966,-119.43991
"Iced Earth","East Pillar of the Cookie > Aj. Cookie Area > Lower Merced River Canyon > Yosemite Valley > Yosemite National Park > California",https://www.mountainproject.com/route/114275100/iced-earth,4.0,-1,Sport,5.12d,1,110,37.71868,-119.71864
"The Hourglass, Right","6. The Hourglass Wall > A. Ribbon Falls Area > Valley North Side > Yosemite Valley > Yosemite National Park > California",https://www.mountainproject.com/route/107438296/the-hourglass-right,4.0,-1,Trad,5.10a,3,350,37.73437,-119.64593
"Quo Vadis","2. Southwest Face > B. El Capitan > Valley North Side > Yosemite Valley > Yosemite National Park > California",https://www.mountainproject.com/route/106683500/quo-vadis,4.0,-1,"Trad, Aid","5.9+ A4+",22,3000,37.73051,-119.63828
Ephemeron,"3. Southeast Face > B. El Capitan > Valley North Side > Yosemite Valley > Yosemite National Park > California",https://www.mountainproject.com/route/114404271/ephemeron,4.0,-1,"Trad, Aid","5.10 A4",22,3000,37.72954,-119.63438
"Tennessee Wall (P1: Tennessee Strings)","The Cookie Cliff > Aj. Cookie Area > Lower Merced River Canyon > Yosemite Valley > Yosemite National Park > California",https://www.mountainproject.com/route/114052151/tennessee-wall-p1-tennessee-strings,3.7,-1,Trad,5.12b,3,250,37.71772,-119.71881
"Modern Alchemy","6. Middle Cathedral Rock > P. Cathedral Area > Valley South Side > Yosemite Valley > Yosemite National Park > California",https://www.mountainproject.com/route/119140641/modern-alchemy,4.0,-1,Trad,5.10b,1,,37.7165,-119.6363
Mithrandir,"West Face > Fairview Dome > Tuolumne Meadows > Yosemite National Park > California",https://www.mountainproject.com/route/119501813/mithrandir,3.8,-1,Trad,"5.11b R",6,800,37.87012,-119.40627
"Prime Directive","Fifi Buttress > Q. Leaning Tower Area > Valley South Side > Yosemite Valley > Yosemite National Park > California",https://www.mountainproject.com/route/120342754/prime-directive,4.0,-1,Trad,5.12+,11,1000,37.71073,-119.65013
"Broken Arrow","Olmsted Canyon Right > Olmsted Area > Tuolumne Meadows > Yosemite National Park > California",https://www.mountainproject.com/route/118983258/broken-arrow,4.0,-1,Trad,5.14a,1,70,37.81564,-119.48839
"Bombs Over Tokyo (Full)","West Face > DAFF Dome > DAFF Area > Tuolumne Meadows > Yosemite National Park > California",https://www.mountainproject.com/route/119857808/bombs-over-tokyo-full,3.5,-1,Trad,"5.13- R",5,600,37.8795,-119.41345
"The Meltdown","Pywiack Dome > Tuolumne Meadows > Yosemite National Park > California",https://www.mountainproject.com/route/121281535/the-meltdown,4.0,-1,Trad,"5.11d R",1,100,37.8453,-119.444
"Mother Earth","6. Middle Cathedral Rock > P. Cathedral Area > Valley South Side > Yosemite Valley > Yosemite National Park > California",https://www.mountainproject.com/route/120742754/mother-earth,4.0,-1,Trad,"5.11c PG13",10,1000,37.7165,-119.6363
"Crotch Rocket Joy Ride","West Face > DAFF Dome > DAFF Area > Tuolumne Meadows > Yosemite National Park > California",https://www.mountainproject.com/route/123130484/crotch-rocket-joy-ride,4.0,-1,Trad,"5.9 PG13",3,400,37.8795,-119.41345
"Epidemia de Opiáceos","1. Jericho Wall > I. Glacier Point Apron > Valley South Side > Yosemite Valley > Yosemite National Park > California",https://www.mountainproject.com/route/116233567/epidemia-de-opiaceos,4.0,-1,"Trad, Aid","5.7 A3-",8,,37.72519,-119.56381
